No,DealerCreatedTime,Point,ZanCount,QQhref,Longitude,Latitude,DealerGuidId,Medal,IS_E,DealerId,Name,DealerTag,Rate,SalesPhone,Address,Website,Email,Summery,ShareToMicroBlog,TianMaoWebsite,CheBaBaWebsite,province,city
E2113,/Date(-62135596800000)/,,0,tencent://message/?Menu=yes&uin=1261559854&Site=ebuy.dongfeng-nissan.com.cn&Service=300&sigT=45a1e5847943b64c6ff3990f8a9e644d2b31356cb0b4ac6b24663a3c8dd0f8aa12a595b1714f9d45,117.064921,30.574332,75a89bfa-4027-460b-a466-3f8b78648ee6,,False,,安庆恒业,,0,0556-5228158,安徽省安庆市石塘湖路10号,http://www.dongfeng-nissan.com.cn/DFLOffical/dealer/nissan/anhui/anqing/aqhye,448106461@qq.com,,,,http://www.chebaba.com/dealer_S2015072210514.htm,安徽省,安庆市
E2102,/Date(-62135596800000)/,,0,tencent://message/?Menu=yes&uin=71940964&Site=ebuy.dongfeng-nissan.com.cn&Service=300&sigT=45a1e5847943b64c6ff3990f8a9e644d2b31356cb0b4ac6b24663a3c8dd0f8aa12a595b1714f9d45,117.313755,32.867035,ab0f0b33-374f-45b2-99b8-057c0875cf41,,False,,蚌埠皖之星,,0,0552-3713222,蚌埠市高新区迎宾大道西侧中环线南35号,http://www.dongfeng-nissan.com.cn/DFLOffical/dealer/nissan/anhui/bengbu/bbwzxing,bengbuwanzhixing@dfl.com.cn,,,,http://www.chebaba.com/dealer_S2015072210254.htm,安徽省,蚌埠市
E2130,/Date(-62135596800000)/,,0,tencent://message/?Menu=yes&uin=&Site=ebuy.dongfeng-nissan.com.cn&Service=300&sigT=45a1e5847943b64c6ff3990f8a9e644d2b31356cb0b4ac6b24663a3c8dd0f8aa12a595b1714f9d45,115.7793,33.85672,0f4f1b1e-06cf-4e49-bbc6-fe9359539230,,False,,亳州亚夏谯城,,0,0558-5656088,安徽省亳州市谯城区亳州芜湖工业园105国道东侧亚夏国际汽车城,http://www.dongfeng-nissan.com.cn/DFLOffical/dealer/nissan/anhui/bozhou/bzyxjcheng,bozhouyaxiaqiaocheng@dfl.com.cn,,,,http://www.chebaba.com/dealer_S2015072201088.htm,安徽省,亳州市
E2132,/Date(-62135596800000)/,,0,tencent://message/?Menu=yes&uin=&Site=ebuy.dongfeng-nissan.com.cn&Service=300&sigT=45a1e5847943b64c6ff3990f8a9e644d2b31356cb0b4ac6b24663a3c8dd0f8aa12a595b1714f9d45,117.529987,30.62242,cc234781-b37a-4e9c-821c-3a1e35426bfe,,False,,池州顺达贵池,,0,0566-2829866,安徽省池州市站前区青莲路东风日产顺达贵池专营店,http://www.dongfeng-nissan.com.cn/DFLOffical/dealer/nissan/anhui/chizhoushi/czsdgchi,Nissan0566@163.com,,,,http://www.chebaba.com/dealer_S2015072201056.htm,安徽省,池州市
E2123,/Date(-62135596800000)/,,0,tencent://message/?Menu=yes&uin=1220622330&Site=ebuy.dongfeng-nissan.com.cn&Service=300&sigT=45a1e5847943b64c6ff3990f8a9e644d2b31356cb0b4ac6b24663a3c8dd0f8aa12a595b1714f9d45,118.355482,32.272051,aa153b31-9190-498f-9d40-d302c491dd36,,False,,滁州正和,,0,0550-3015333,安徽省滁州市凤阳北路588号,http://www.dongfeng-nissan.com.cn/DFLOffical/dealer/nissan/anhui/chuzhou/czzhe,chuzhouzhenghe-dmc@dfl.com.cn,,,,http://www.chebaba.com/dealer_S2015072210726.htm,安徽省,滁州市
E2127,/Date(-62135596800000)/,,0,tencent://message/?Menu=yes&uin=2192047408&Site=ebuy.dongfeng-nissan.com.cn&Service=300&sigT=45a1e5847943b64c6ff3990f8a9e644d2b31356cb0b4ac6b24663a3c8dd0f8aa12a595b1714f9d45,115.849925,32.871379,fe597273-eb19-4245-b73c-1f0f6d850a83,,False,,阜阳中源开发区,,0,0558-2539111,安徽省阜阳市阜阳开发区105国道南侧,http://www.dongfeng-nissan.com.cn/DFLOffical/dealer/nissan/anhui/fuyang/fyzykfqu,fuyangzhongyuankaifaqu@dfl.com.cn,,,,http://www.chebaba.com/dealer_S2015072210990.htm,安徽省,阜阳市
E2101,/Date(-62135596800000)/,,0,tencent://message/?Menu=yes&uin=963557274&Site=ebuy.dongfeng-nissan.com.cn&Service=300&sigT=45a1e5847943b64c6ff3990f8a9e644d2b31356cb0b4ac6b24663a3c8dd0f8aa12a595b1714f9d45,117.183181,31.858507,7c5c22e9-ac26-4cc5-8387-dd19ddf5b45f,,False,,合肥伟业,,0,0551-63522222，0551-63525555,合肥市长江西路名车广场1068号(奥迪正后方)。合肥市合作化南路1号（老建工学院斜对面）,http://www.dongfeng-nissan.com.cn/DFLOffical/dealer/nissan/anhui/hefei/hfwye,hefeiweiye@dfl.com.cn,,,,http://www.chebaba.com/dealer_S2015072210339.htm,安徽省,合肥市
E2105,/Date(-62135596800000)/,,0,tencent://message/?Menu=yes&uin=2456344788&Site=ebuy.dongfeng-nissan.com.cn&Service=300&sigT=45a1e5847943b64c6ff3990f8a9e644d2b31356cb0b4ac6b24663a3c8dd0f8aa12a595b1714f9d45,117.35092,31.80159,3b886dc5-6364-47ae-b7d7-a26e2d095e77,,False,,合肥伟盛行,,0,0551-63875111,安徽省合肥市包河区纬二路12号,http://www.dongfeng-nissan.com.cn/DFLOffical/dealer/nissan/anhui/hefei/hfwsxing,hefeiweishenghang@fengshenmotor.com,,,,http://www.chebaba.com/dealer_S2015072210616.htm,安徽省,合肥市
E2111,/Date(-62135596800000)/,,0,tencent://message/?Menu=yes&uin=491830727&Site=ebuy.dongfeng-nissan.com.cn&Service=300&sigT=45a1e5847943b64c6ff3990f8a9e644d2b31356cb0b4ac6b24663a3c8dd0f8aa12a595b1714f9d45,117.336684,31.890221,520515b4-573e-4622-b4b8-f0d829043004,,False,,合肥风之星,,0,0551-64257000,合肥市瑶海区安徽国际汽车城6号 东风日产合肥风之星专营店（北二环与东二环交口西南）,http://www.dongfeng-nissan.com.cn/DFLOffical/dealer/nissan/anhui/hefei/hffzxing,491830727@qq.com,,,,http://www.chebaba.com/dealer_S2015072210294.htm,安徽省,合肥市
E2107,/Date(-62135596800000)/,,0,tencent://message/?Menu=yes&uin=424475609&Site=ebuy.dongfeng-nissan.com.cn&Service=300&sigT=45a1e5847943b64c6ff3990f8a9e644d2b31356cb0b4ac6b24663a3c8dd0f8aa12a595b1714f9d45,117.270317,31.925893,463cbb48-4b28-4bd0-904d-dbc87bdd2847,,False,,合肥恒信东顺合肥北,,0,0551-62631777,合肥市庐阳区蒙城北路与电厂路交口南150米路西,http://www.dongfeng-nissan.com.cn/DFLOffical/dealer/nissan/anhui/hefei/hxdshfbei,424475609@qq.com,,,,http://www.chebaba.com/dealer_S2015072201018.htm,安徽省,合肥市
E2118,/Date(-62135596800000)/,,0,tencent://message/?Menu=yes&uin=114944802&Site=ebuy.dongfeng-nissan.com.cn&Service=300&sigT=45a1e5847943b64c6ff3990f8a9e644d2b31356cb0b4ac6b24663a3c8dd0f8aa12a595b1714f9d45,116.806219,33.932698,3ec1f288-74e5-411e-ba7e-1b1f75407766,,False,,淮北华松,,0,0561-3110888,淮北市相山南路汽车城7号(19路公交车终点站）,http://www.dongfeng-nissan.com.cn/DFLOffical/dealer/nissan/anhui/huaibei/hbhsong,huaibeihuasong@fengshenmotor.com,,,,http://www.chebaba.com/dealer_S2015072210612.htm,安徽省,淮北市
E2125,/Date(-62135596800000)/,,0,tencent://message/?Menu=yes&uin=121479226&Site=ebuy.dongfeng-nissan.com.cn&Service=300&sigT=45a1e5847943b64c6ff3990f8a9e644d2b31356cb0b4ac6b24663a3c8dd0f8aa12a595b1714f9d45,117.073799,32.666392,d5226a0c-d9f2-4873-9d74-441a948dbebf,,False,,淮南中骏,,0,0554-3611888,安徽省淮南市经济技术开发区管委会大楼斜对面,http://www.dongfeng-nissan.com.cn/DFLOffical/dealer/nissan/anhui/huainan/hnzjun,1577804413@qq.com,,,,http://www.chebaba.com/dealer_S2015072210741.htm,安徽省,淮南市
E2122,/Date(-62135596800000)/,,0,tencent://message/?Menu=yes&uin=402683061&Site=ebuy.dongfeng-nissan.com.cn&Service=300&sigT=45a1e5847943b64c6ff3990f8a9e644d2b31356cb0b4ac6b24663a3c8dd0f8aa12a595b1714f9d45,118.274894,29.75391,9e007047-ef06-43f1-91ff-b5710f1a4684,,False,,黄山亚骐,,0,0559-2580898,黄山市经济开发区齐云大道,http://www.dongfeng-nissan.com.cn/DFLOffical/dealer/nissan/anhui/huangshan/hsyqi,402683061@qq.com,,,,http://www.chebaba.com/dealer_S2015072210703.htm,安徽省,黄山市
E2120,/Date(-62135596800000)/,,0,tencent://message/?Menu=yes&uin=81560704&Site=ebuy.dongfeng-nissan.com.cn&Service=300&sigT=45a1e5847943b64c6ff3990f8a9e644d2b31356cb0b4ac6b24663a3c8dd0f8aa12a595b1714f9d45,116.481659,31.719708,b8805696-69b3-4e3c-8f44-878aa8b04c09,,False,,六安伟恒,,0,0564-3615666,安徽省六安市裕安区磨子潭路与312国道交叉口,http://www.dongfeng-nissan.com.cn/DFLOffical/dealer/nissan/anhui/luan/lawheng,luanweiheng@dfl.com.cn,,,,http://www.chebaba.com/dealer_S2015072210653.htm,安徽省,六安市
E2129,/Date(-62135596800000)/,,0,tencent://message/?Menu=yes&uin=&Site=ebuy.dongfeng-nissan.com.cn&Service=300&sigT=45a1e5847943b64c6ff3990f8a9e644d2b31356cb0b4ac6b24663a3c8dd0f8aa12a595b1714f9d45,116.628002,31.766054,200ee91a-d7e1-4abe-aacf-a781442569cb,,False,,六安安徽汽贸金安,,0,0564-3636555,六安市金安区312国道与凤凰路交口南侧,http://www.dongfeng-nissan.com.cn/DFLOffical/dealer/nissan/anhui/luan/laahqmjan,liuananhuiqimaojinan@dfl.com.cn,,,,http://www.chebaba.com/dealer_S2015072201130.htm,安徽省,六安市
E2116,/Date(-62135596800000)/,,0,tencent://message/?Menu=yes&uin=871023367&Site=ebuy.dongfeng-nissan.com.cn&Service=300&sigT=45a1e5847943b64c6ff3990f8a9e644d2b31356cb0b4ac6b24663a3c8dd0f8aa12a595b1714f9d45,118.51588,31.688526,1a511d1b-4b3c-453e-89ca-d33736945514,,False,,马鞍山伟德,,0,0555-3219999,安徽马鞍山开发区湖西南路1号东风日产马鞍山伟德专营店,http://www.dongfeng-nissan.com.cn/DFLOffical/dealer/nissan/anhui/maanshan/maswde,maanshanweide@fengshenmotor.com,,,,http://www.chebaba.com/dealer_S2015072210264.htm,安徽省,马鞍山市
E2126,/Date(-62135596800000)/,,0,tencent://message/?Menu=yes&uin=&Site=ebuy.dongfeng-nissan.com.cn&Service=300&sigT=45a1e5847943b64c6ff3990f8a9e644d2b31356cb0b4ac6b24663a3c8dd0f8aa12a595b1714f9d45,117.062925,33.641493,2f727355-0125-4886-9c59-c9f8ac0d02d1,,False,,宿州润东,,0,0557-3239888,安徽省宿州市东十里汽车城安通驾校北500米,http://www.dongfeng-nissan.com.cn/DFLOffical/dealer/nissan/anhui/suzhou/szrdong,suzhourundong@dfl.com.cn,,,,http://www.chebaba.com/dealer_S2015072210925.htm,安徽省,宿州市
E2115,/Date(-62135596800000)/,,0,tencent://message/?Menu=yes&uin=&Site=ebuy.dongfeng-nissan.com.cn&Service=300&sigT=45a1e5847943b64c6ff3990f8a9e644d2b31356cb0b4ac6b24663a3c8dd0f8aa12a595b1714f9d45,117.813253,30.914736,ec8525ca-bf97-4c2d-9e83-4cab5660ca57,,False,,铜陵顺达,,0,0562-5326800,安徽省铜陵市桥南汽车4S店产业园东风日产铜陵顺达专营店,http://www.dongfeng-nissan.com.cn/DFLOffical/dealer/nissan/anhui/tongling/tlsda,tonglingshunda@fengshenmotor.com,,,,http://www.chebaba.com/dealer_S2015072210474.htm,安徽省,铜陵市
E2128,/Date(-62135596800000)/,,0,tencent://message/?Menu=yes&uin=2825314225&Site=ebuy.dongfeng-nissan.com.cn&Service=300&sigT=45a1e5847943b64c6ff3990f8a9e644d2b31356cb0b4ac6b24663a3c8dd0f8aa12a595b1714f9d45,118.405353,31.365752,6b98b94a-a3b6-4b15-875f-5f4092a0a064,,False,,芜湖亚威,,0,0553-2912533,芜湖市鸠江区汽车园（鸠兹家苑对面）,http://www.dongfeng-nissan.com.cn/DFLOffical/dealer/nissan/anhui/wuhu/whywei,wuhuyawei@fengshenmotor.com,,,,http://www.chebaba.com/dealer_S2015072201015.htm,安徽省,芜湖市
E2103,/Date(-62135596800000)/,,0,tencent://message/?Menu=yes&uin=466865434&Site=ebuy.dongfeng-nissan.com.cn&Service=300&sigT=45a1e5847943b64c6ff3990f8a9e644d2b31356cb0b4ac6b24663a3c8dd0f8aa12a595b1714f9d45,118.378893,31.388628,30aca17b-448c-4333-9840-5b5691e8d1e1,,False,,芜湖福兆,,0,0553-5883013,安徽省芜湖市银湖北路大桥经济开发区67号,http://www.dongfeng-nissan.com.cn/DFLOffical/dealer/nissan/anhui/wuhu/whfzhao,wuhufuzhao@fengshenmotor.com,,,,http://www.chebaba.com/dealer_S2015072210384.htm,安徽省,芜湖市
E2117,/Date(-62135596800000)/,,0,tencent://message/?Menu=yes&uin=891157020&Site=ebuy.dongfeng-nissan.com.cn&Service=300&sigT=45a1e5847943b64c6ff3990f8a9e644d2b31356cb0b4ac6b24663a3c8dd0f8aa12a595b1714f9d45,118.745308,30.937358,1abfa762-ab98-49ae-82af-3fe04f775b11,,False,,宣城亚腾,,0,0563-2627777,安徽省宣城市区经济技术开发区昭亭南路亚夏汽车城（银桥湾小区对面）,http://www.dongfeng-nissan.com.cn/DFLOffical/dealer/nissan/anhui/xuancheng/xcyteng,xuanchengyateng@fengshenmotor.com,,,,http://www.chebaba.com/dealer_S2015072210429.htm,安徽省,宣城市
B0109,/Date(-62135596800000)/,,0,tencent://message/?Menu=yes&uin=1140078846&Site=ebuy.dongfeng-nissan.com.cn&Service=300&sigT=45a1e5847943b64c6ff3990f8a9e644d2b31356cb0b4ac6b24663a3c8dd0f8aa12a595b1714f9d45,116.553164,39.86969,b78e88e4-6625-464d-9a52-f9f7d4b1c39d,,False,,北京宏远信诚,,0,010-87393398,北京市朝阳区欢乐谷东行3公里（五方桥西南侧）,http://www.dongfeng-nissan.com.cn/DFLOffical/dealer/nissan/beijing/beijing/bjhyxcheng,beijinghongyuanxincheng@fengshenmotor.com,,,,http://www.chebaba.com/dealer_detail-3511-1.html,北京市,北京市
B0123,/Date(-62135596800000)/,,0,tencent://message/?Menu=yes&uin=435777281&Site=ebuy.dongfeng-nissan.com.cn&Service=300&sigT=45a1e5847943b64c6ff3990f8a9e644d2b31356cb0b4ac6b24663a3c8dd0f8aa12a595b1714f9d45,116.421126,40.08944,9bf71d0d-33ac-4acc-8c29-7f8a72b6c2d1,,False,,北京汇京福瑞,,0,010-58040688,北京市朝阳区北苑家园北行5公里,http://www.dongfeng-nissan.com.cn/DFLOffical/dealer/nissan/beijing/beijing/bjhjfrui,yinyugai@hjhy.com,,,,http://www.chebaba.com/dealer_S2015072210669.htm,北京市,北京市
B0102,/Date(-62135596800000)/,,0,tencent://message/?Menu=yes&uin=1970396454&Site=ebuy.dongfeng-nissan.com.cn&Service=300&sigT=45a1e5847943b64c6ff3990f8a9e644d2b31356cb0b4ac6b24663a3c8dd0f8aa12a595b1714f9d45,116.320275,39.862214,991c147b-09ff-45b5-a997-6ed5777f97b9,,True,,北京汇京鸿运,,0,010-63855871,北京市丰台区西国贸汽配城A1座,http://www.dongfeng-nissan.com.cn/DFLOffical/dealer/nissan/beijing/beijing/bjhjhyun,beijinghuijinghongyun@fengshenmotor.com,,,,http://www.chebaba.com/dealer_S2015072210256.htm,北京市,北京市
B0106,/Date(-62135596800000)/,,0,tencent://message/?Menu=yes&uin=1007776661&Site=ebuy.dongfeng-nissan.com.cn&Service=300&sigT=45a1e5847943b64c6ff3990f8a9e644d2b31356cb0b4ac6b24663a3c8dd0f8aa12a595b1714f9d45,116.422803,39.836961,55eea3a3-348b-430c-a6b0-a2cc98a32504,,True,,北京中汽雷日,,0,010-87817771,北京市丰台区南四环中路20号,http://www.dongfeng-nissan.com.cn/DFLOffical/dealer/nissan/beijing/beijing/bjzqlri,beijingzhongqileiri@fengshenmotor.com,,,,http://www.chebaba.com/dealer_S2015072210250.htm,北京市,北京市
B0113,/Date(-62135596800000)/,,0,tencent://message/?Menu=yes&uin=&Site=ebuy.dongfeng-nissan.com.cn&Service=300&sigT=45a1e5847943b64c6ff3990f8a9e644d2b31356cb0b4ac6b24663a3c8dd0f8aa12a595b1714f9d45,116.56868,40.120254,d7a05de0-a28d-443f-b468-9fce276fddeb,,False,,北京通和盛远,,0,010-80488900,北京市顺义区京顺路后沙峪段三号(乾博汽车时代广场),http://www.dongfeng-nissan.com.cn/DFLOffical/dealer/nissan/beijing/beijing/bjthsyuan,beijingtongheshenyuan@fengshenmotor.com,,,,http://www.chebaba.com/dealer_S2015072210516.htm,北京市,北京市
B0107,/Date(-62135596800000)/,,0,tencent://message/?Menu=yes&uin=2925590208&Site=ebuy.dongfeng-nissan.com.cn&Service=300&sigT=45a1e5847943b64c6ff3990f8a9e644d2b31356cb0b4ac6b24663a3c8dd0f8aa12a595b1714f9d45,116.364987,40.024405,a9c74b57-4fc5-41a6-8419-470e491180de,,True,,北京森华佳运,,0,010-62950498,北京市朝阳区德胜门外花虎沟18号,http://www.dongfeng-nissan.com.cn/DFLOffical/dealer/nissan/beijing/beijing/bjshjyun,beijingsenhuajiayun@fengshenmotor.com,,,,http://www.chebaba.com/dealer_S2015072210431.htm,北京市,北京市
B0112,/Date(-62135596800000)/,,0,tencent://message/?Menu=yes&uin=1625327596&Site=ebuy.dongfeng-nissan.com.cn&Service=300&sigT=45a1e5847943b64c6ff3990f8a9e644d2b31356cb0b4ac6b24663a3c8dd0f8aa12a595b1714f9d45,116.455645,40.028093,0725aec4-0068-4bbc-affb-c2bc3dd46d87,,True,,北京汇京世纪,,0,010-84917961,北京市朝阳区来广营西路18号(北五环顾家庄桥东北侧，新北路向北100米),http://www.dongfeng-nissan.com.cn/DFLOffical/dealer/nissan/beijing/beijing/bjhjsji,beijinghuijingshiji@fengshenmotor.com,,,,http://www.chebaba.com/dealer_S2015072210296.htm,北京市,北京市
B0122,/Date(-62135596800000)/,,0,tencent://message/?Menu=yes&uin=934173158&Site=ebuy.dongfeng-nissan.com.cn&Service=300&sigT=45a1e5847943b64c6ff3990f8a9e644d2b31356cb0b4ac6b24663a3c8dd0f8aa12a595b1714f9d45,116.182441,39.915576,1151b601-6faf-4dc9-9ba4-b086f323a857,,False,,北京冀东兴,,0,010-68818885,北京市石景山区古城西街中段3号,http://www.dongfeng-nissan.com.cn/DFLOffical/dealer/nissan/beijing/beijing/bjjdxing,beijingjidongxing@163.com,,,,http://www.chebaba.com/dealer_S2015072210661.htm,北京市,北京市
B0130,/Date(-62135596800000)/,,0,tencent://message/?Menu=yes&uin=81492912&Site=ebuy.dongfeng-nissan.com.cn&Service=300&sigT=45a1e5847943b64c6ff3990f8a9e644d2b31356cb0b4ac6b24663a3c8dd0f8aa12a595b1714f9d45,116.10826,39.7272,2618ed6c-d851-4e20-ab5f-d228cf10b9b0,,False,,北京晟通,,0,010-57565003,北京市房山区阎村镇阎村桥向东50米（澎湃汽车城内）,http://www.dongfeng-nissan.com.cn/DFLOffical/dealer/nissan/beijing/beijing/bjstong,titon362@sohu.com,,,,http://www.chebaba.com/dealer_S2015072210917.htm,北京市,北京市
B0127,/Date(-62135596800000)/,,0,tencent://message/?Menu=yes&uin=281608806&Site=ebuy.dongfeng-nissan.com.cn&Service=300&sigT=45a1e5847943b64c6ff3990f8a9e644d2b31356cb0b4ac6b24663a3c8dd0f8aa12a595b1714f9d45,116.224446,40.206015,01f38efe-7093-44ab-98e1-b354dd416e6a,,False,,北京祥瑞聚鑫,,0,010-60715360,北京市昌平区马池口镇百泉庄652号,http://www.dongfeng-nissan.com.cn/DFLOffical/dealer/nissan/beijing/beijing/bjxrjxin,bjxrjx@163.com,,,,http://www.chebaba.com/dealer_S2015072210700.htm,北京市,北京市
B0104,/Date(-62135596800000)/,,0,tencent://message/?Menu=yes&uin=2451364343&Site=ebuy.dongfeng-nissan.com.cn&Service=300&sigT=45a1e5847943b64c6ff3990f8a9e644d2b31356cb0b4ac6b24663a3c8dd0f8aa12a595b1714f9d45,116.484808,39.960808,8408d040-53f2-4e9d-902c-f8648288645c,,True,,北京东风南方亮马,,0,010-64329583,北京市朝阳区亮马桥路25号,http://www.dongfeng-nissan.com.cn/DFLOffical/dealer/nissan/beijing/beijing/bjdfnflma,beijingshouqi@fengshenmotor.com,,,,http://www.chebaba.com/dealer_S2015072210559.htm,北京市,北京市
B0129,/Date(-62135596800000)/,,0,tencent://message/?Menu=yes&uin=81593923&Site=ebuy.dongfeng-nissan.com.cn&Service=300&sigT=45a1e5847943b64c6ff3990f8a9e644d2b31356cb0b4ac6b24663a3c8dd0f8aa12a595b1714f9d45,116.3162,40.078951,150471c4-1af5-4402-885f-efe2b82103e5,,False,,北京东风南方大成,,0,010-52961778,北京市昌平区回龙观欧德宝汽车交易市场A区9号,http://www.dongfeng-nissan.com.cn/DFLOffical/dealer/nissan/beijing/beijing/bjdcheng,beijingdongfengnanfangdacheng-dmc@dfl.com.cn,,,,http://www.chebaba.com/dealer_S2015072210731.htm,北京市,北京市
B0103,/Date(-62135596800000)/,,0,tencent://message/?Menu=yes&uin=2986418546&Site=ebuy.dongfeng-nissan.com.cn&Service=300&sigT=45a1e5847943b64c6ff3990f8a9e644d2b31356cb0b4ac6b24663a3c8dd0f8aa12a595b1714f9d45,116.514662,39.817962,57110067-22b8-4215-9ca2-22c76880673e,,False,,北京东风南方三合,,0,010-67862528，010-67881831,北京经济技术开发区北环东路乙15号（亦庄沃尔玛山姆会员店东侧）,http://www.dongfeng-nissan.com.cn/DFLOffical/dealer/nissan/beijing/beijing/bjshe,2986418546@qq.com,,,,http://www.chebaba.com/dealer_S2015072210203.htm,北京市,北京市
B0108,/Date(-62135596800000)/,,0,tencent://message/?Menu=yes&uin=280087674&Site=ebuy.dongfeng-nissan.com.cn&Service=300&sigT=45a1e5847943b64c6ff3990f8a9e644d2b31356cb0b4ac6b24663a3c8dd0f8aa12a595b1714f9d45,116.531371,39.947161,addee7c9-a76d-4bb5-8c66-dc242fc4b4e5,,True,,北京福源,,0,010-85576180,北京市朝阳区姚家园路东口甲1号东方基业汽车城J区14号,http://www.dongfeng-nissan.com.cn/DFLOffical/dealer/nissan/beijing/beijing/bjfyuan,beijingfuyuan@fengshenmotor.com,,,,http://www.chebaba.com/dealer_S2015072210216.htm,北京市,北京市
B0110,/Date(-62135596800000)/,,0,tencent://message/?Menu=yes&uin=981796341&Site=ebuy.dongfeng-nissan.com.cn&Service=300&sigT=45a1e5847943b64c6ff3990f8a9e644d2b31356cb0b4ac6b24663a3c8dd0f8aa12a595b1714f9d45,116.261192,40.056678,504c4271-8530-49c8-9100-b4ee14d52c76,,False,,北京华盛昌百旺,,0,010-82402800,北京市海淀区西北旺镇百旺绿谷汽车园,http://www.dongfeng-nissan.com.cn/DFLOffical/dealer/nissan/beijing/beijing/bjhscbwang,beijinghuashengchangbaiwang@fengshenmotor.com,,,,http://www.chebaba.com/dealer_S2015072210341.htm,北京市,北京市
B0125,/Date(-62135596800000)/,,0,tencent://message/?Menu=yes&uin=649373139&Site=ebuy.dongfeng-nissan.com.cn&Service=300&sigT=45a1e5847943b64c6ff3990f8a9e644d2b31356cb0b4ac6b24663a3c8dd0f8aa12a595b1714f9d45,116.24677,39.932197,918aeb57-55f1-4d44-bcaa-da9b227cac65,,True,,北京航天正通,,0,010-68230303,北京市海淀区阜石路61号,http://www.dongfeng-nissan.com.cn/DFLOffical/dealer/nissan/beijing/beijing/bjhtztong,649373139@qq.com,,,,http://www.chebaba.com/dealer_S2015072210684.htm,北京市,北京市
B0121,/Date(-62135596800000)/,,0,tencent://message/?Menu=yes&uin=1241466648&Site=ebuy.dongfeng-nissan.com.cn&Service=300&sigT=45a1e5847943b64c6ff3990f8a9e644d2b31356cb0b4ac6b24663a3c8dd0f8aa12a595b1714f9d45,116.319531,39.969518,dd5a13d0-2ef2-4397-bfdc-280f3c6c048c,,False,,北京海润嘉,,0,010-68428199,北京海淀区北三环西路62号（三义庙加油站内）,http://www.dongfeng-nissan.com.cn/DFLOffical/dealer/nissan/beijing/beijing/bjhrjia,beijinggongjiaojiaderun@fengshenmotor.com,,,,http://www.chebaba.com/dealer_S2015072210620.htm,北京市,北京市
B0120,/Date(-62135596800000)/,,0,tencent://message/?Menu=yes&uin=472909680&Site=ebuy.dongfeng-nissan.com.cn&Service=300&sigT=45a1e5847943b64c6ff3990f8a9e644d2b31356cb0b4ac6b24663a3c8dd0f8aa12a595b1714f9d45,116.80335,40.362449,99ca4649-2f8c-478f-a1d5-ed67da4aac1f,,False,,北京鑫达润城,,0,010-69090088,北京市密云县十里堡镇彩虹门北侧,http://www.dongfeng-nissan.com.cn/DFLOffical/dealer/nissan/beijing/beijing/bjxdrcheng,beijingxindaruncheng@fengshenmotor.com,,,,http://www.chebaba.com/dealer_S2015072210619.htm,北京市,北京市
B0118,/Date(-62135596800000)/,,0,tencent://message/?Menu=yes&uin=457280790&Site=ebuy.dongfeng-nissan.com.cn&Service=300&sigT=45a1e5847943b64c6ff3990f8a9e644d2b31356cb0b4ac6b24663a3c8dd0f8aa12a595b1714f9d45,116.66867,39.871552,e4769621-6559-4f54-8d8b-235856f481fe,,False,,北京东方华中,,0,010-81579988,北京市通州区梨园云景东路88号,http://www.dongfeng-nissan.com.cn/DFLOffical/dealer/nissan/beijing/beijing/bjdfhzhong,beijingdongfanghuazhong@fengshenmotor.com,,,,http://www.chebaba.com/dealer_S2015072210377.htm,北京市,北京市
B0101,/Date(-62135596800000)/,,0,tencent://message/?Menu=yes&uin=87441440&Site=ebuy.dongfeng-nissan.com.cn&Service=300&sigT=45a1e5847943b64c6ff3990f8a9e644d2b31356cb0b4ac6b24663a3c8dd0f8aa12a595b1714f9d45,116.265903,39.978925,af7c473e-640e-434b-92e2-a215ec1b21ca,,False,,北京华盛昌,,0,010-88460101,北京市海淀区闵庄路2号（西北四环香山玉泉山出口1000米左右，第一个红绿灯左转50米路南即到）,http://www.dongfeng-nissan.com.cn/DFLOffical/dealer/nissan/beijing/beijing/bjhschang,beijinghuashengchang@fengshenmotor.com,,,,http://www.chebaba.com/dealer_S2015072210204.htm,北京市,北京市
B0119,/Date(-62135596800000)/,,0,tencent://message/?Menu=yes&uin=864925933&Site=ebuy.dongfeng-nissan.com.cn&Service=300&sigT=45a1e5847943b64c6ff3990f8a9e644d2b31356cb0b4ac6b24663a3c8dd0f8aa12a595b1714f9d45,116.450326,39.876771,61f4ae32-7851-4cb5-aa69-332445add11b,,False,,北京浩洋正业,,0,010-87675777,北京市东城区左安门关厢东里22号（东南二环左安门桥向东100米路南）,http://www.dongfeng-nissan.com.cn/DFLOffical/dealer/nissan/beijing/beijing/bjhyzye,Beijinghaoyangzhengye@fengshenmotor.com,,,,http://www.chebaba.com/dealer_S2015072210290.htm,北京市,北京市
J0408,/Date(-62135596800000)/,,0,tencent://message/?Menu=yes&uin=&Site=ebuy.dongfeng-nissan.com.cn&Service=300&sigT=45a1e5847943b64c6ff3990f8a9e644d2b31356cb0b4ac6b24663a3c8dd0f8aa12a595b1714f9d45,106.486721,29.755578,e98bebba-d2c3-4a9f-8e4d-e1d574b555f7,,False,,重庆东风南方渝东,,0,023-68236777,重庆市北碚区蔡家组团B分区B35-1/03地块,http://www.dongfeng-nissan.com.cn/DFLOffical/dealer/nissan/chongqing/chongqing/chongqingdongfengnafangyudong,chongqingdongfengnanfangyudong@dfl.com.cn,,,,,重庆市,重庆市
J0407,/Date(-62135596800000)/,,0,tencent://message/?Menu=yes&uin=731671182&Site=ebuy.dongfeng-nissan.com.cn&Service=300&sigT=45a1e5847943b64c6ff3990f8a9e644d2b31356cb0b4ac6b24663a3c8dd0f8aa12a595b1714f9d45,106.53099,29.41193,3852d530-078d-4d08-9a5a-f1aa7aedf848,,False,,重庆东风南方渝发,,0,023-62555511,重庆市巴南区龙洲湾龙洲大道176号（巴南区公安分局上行800米）,http://www.dongfeng-nissan.com.cn/DFLOffical/dealer/nissan/chongqing/chongqing/cqyfa,731671182@qq.com,,,,http://www.chebaba.com/dealer_S2015072201058.htm,重庆市,重庆市
J0402,/Date(-62135596800000)/,,0,tencent://message/?Menu=yes&uin=1065425404&Site=ebuy.dongfeng-nissan.com.cn&Service=300&sigT=45a1e5847943b64c6ff3990f8a9e644d2b31356cb0b4ac6b24663a3c8dd0f8aa12a595b1714f9d45,106.466242,29.53297,cc46a21f-71e9-4dc0-a3bb-2e47011536b5,,False,,重庆东风南方渝兴,,0,023-68888990,重庆市九龙坡区石新路220号（巴山车管所对面）,http://www.dongfeng-nissan.com.cn/DFLOffical/dealer/nissan/chongqing/chongqing/cqyxing,chongqingdongfengnanfangyuxing@dfl.com.cn,,,,http://www.chebaba.com/dealer_S2015072210478.htm,重庆市,重庆市
J0401,/Date(-62135596800000)/,,0,tencent://message/?Menu=yes&uin=196762238&Site=ebuy.dongfeng-nissan.com.cn&Service=300&sigT=45a1e5847943b64c6ff3990f8a9e644d2b31356cb0b4ac6b24663a3c8dd0f8aa12a595b1714f9d45,106.53316,29.591625,ed8cdf2a-5971-4b74-ba72-c8b6fdfcc5ba,,False,,重庆盛泰,,0,023-89115566,重庆市渝北区红锦大道16号,http://www.dongfeng-nissan.com.cn/DFLOffical/dealer/nissan/chongqing/chongqing/cqstai,chongqingshengtai@fengshenmotor.com,,,,http://www.chebaba.com/dealer_S2015072210343.htm,重庆市,重庆市
J0405,/Date(-62135596800000)/,,0,tencent://message/?Menu=yes&uin=344136177&Site=ebuy.dongfeng-nissan.com.cn&Service=300&sigT=45a1e5847943b64c6ff3990f8a9e644d2b31356cb0b4ac6b24663a3c8dd0f8aa12a595b1714f9d45,106.56583,29.63893,ebcdea07-cf3e-47c8-8f0d-8bea8badb69d,,False,,重庆都灵,,0,023-67468711,重庆市北部新区金渝大道88-2号 （重庆汽博中心B区）,http://www.dongfeng-nissan.com.cn/DFLOffical/dealer/nissan/chongqing/chongqing/cqdling,Chongqingduling@fengshenmotor.com,,,,http://www.chebaba.com/dealer_S2015072210433.htm,重庆市,重庆市
J0406,/Date(-62135596800000)/,,0,tencent://message/?Menu=yes&uin=165285716&Site=ebuy.dongfeng-nissan.com.cn&Service=300&sigT=45a1e5847943b64c6ff3990f8a9e644d2b31356cb0b4ac6b24663a3c8dd0f8aa12a595b1714f9d45,108.40696,30.777417,42d6b34a-9882-495c-b7de-c2fab9a63905,,False,,万州盛泰飞骏,,0,023-85731618，023-85731619,重庆市万州区沙龙路三段三牧工业大厦,http://www.dongfeng-nissan.com.cn/DFLOffical/dealer/nissan/chongqing/chongqing/wzstfjun,165285716@qq.com,,,,http://www.chebaba.com/dealer_S2015072210682.htm,重庆市,重庆市
J0403,/Date(-62135596800000)/,,0,tencent://message/?Menu=yes&uin=2417282567&Site=ebuy.dongfeng-nissan.com.cn&Service=300&sigT=45a1e5847943b64c6ff3990f8a9e644d2b31356cb0b4ac6b24663a3c8dd0f8aa12a595b1714f9d45,106.572614,29.524092,b852ae97-42d9-4e7f-8b51-2767d5f1a293,,False,,重庆商社西星,,0,023-62603333，023-62601111,重庆市南岸经济技术开发区海峡路111号（四公里立交向鹅公岩大桥1000米处）,http://www.dongfeng-nissan.com.cn/DFLOffical/dealer/nissan/chongqing/chongqing/cqssxxing,chongqingshangshexixing@fengshenmotor.com,,,,http://www.chebaba.com/dealer_S2015072210388.htm,重庆市,重庆市
J0410,/Date(-62135596800000)/,,0,tencent://message/?Menu=yes&uin=&Site=ebuy.dongfeng-nissan.com.cn&Service=300&sigT=45a1e5847943b64c6ff3990f8a9e644d2b31356cb0b4ac6b24663a3c8dd0f8aa12a595b1714f9d45,107.381617,29.709665,f771903b-a1ad-436f-8f3c-0d9be04ec526,,False,,涪陵商社文化,,0,023-72200088,重庆市涪陵区兴华西路36号,http://www.dongfeng-nissan.com.cn/DFLOffical/dealer/nissan/chongqing/chongqing/flsswhua,fulingshangshewenhua@dfl.com.cn,,,,http://www.chebaba.com/dealer_S2015072201332.htm,重庆市,重庆市
G2806,/Date(-62135596800000)/,,0,tencent://message/?Menu=yes&uin=&Site=ebuy.dongfeng-nissan.com.cn&Service=300&sigT=45a1e5847943b64c6ff3990f8a9e644d2b31356cb0b4ac6b24663a3c8dd0f8aa12a595b1714f9d45,119.257768,26.060092,7d263c9c-d4ff-42ec-bac3-34cd2138d14a,,False,,福州汇京金山,,0,0591-38292888,福建省福州市仓山区建新北路146号,http://www.dongfeng-nissan.com.cn/DFLOffical/dealer/nissan/fujian/fuzhou/fzhjjshan,fuzhouhuijingjinshan@dfl.com.cn,,,,http://www.chebaba.com/dealer_S2015072201277.htm,福建省,福州市
G2805,/Date(-62135596800000)/,,0,tencent://message/?Menu=yes&uin=970967933&Site=ebuy.dongfeng-nissan.com.cn&Service=300&sigT=45a1e5847943b64c6ff3990f8a9e644d2b31356cb0b4ac6b24663a3c8dd0f8aa12a595b1714f9d45,119.316369,25.731558,ba4a1d43-65d4-46c2-aa34-c851cf9ab53f,,False,,福清华盛,,0,0591-85361122,福清市石竹街道跃进村（福耀玻璃厂福厦路旁）,http://www.dongfeng-nissan.com.cn/DFLOffical/dealer/nissan/fujian/fuzhou/fqhsheng,381308775@qq.com,,,,http://www.chebaba.com/dealer_S2015072210690.htm,福建省,福州市
G2802,/Date(-62135596800000)/,,0,tencent://message/?Menu=yes&uin=&Site=ebuy.dongfeng-nissan.com.cn&Service=300&sigT=45a1e5847943b64c6ff3990f8a9e644d2b31356cb0b4ac6b24663a3c8dd0f8aa12a595b1714f9d45,119.35133,26.089981,4b9b9f55-4ef5-4554-9a62-f2244d0f1942,,False,,福州中升福新,,0,0591-88875888,福州市福新东路361号（新亚太汽配城内）,http://www.dongfeng-nissan.com.cn/DFLOffical/dealer/nissan/fujian/fuzhou/fzzsgyda,fuzhouguangyuda@fengshenmotor.com,,,,http://www.chebaba.com/dealer_S2015072210211.htm,福建省,福州市
G2803,/Date(-62135596800000)/,,0,tencent://message/?Menu=yes&uin=992406689&Site=ebuy.dongfeng-nissan.com.cn&Service=300&sigT=45a1e5847943b64c6ff3990f8a9e644d2b31356cb0b4ac6b24663a3c8dd0f8aa12a595b1714f9d45,119.361974,26.006803,44f2f6e5-9945-49d5-a828-74519004a7d4,,False,,福州中升福裕,,0,0591-88527777,福州市仓山区福峡路755号（市车管所旁）,http://www.dongfeng-nissan.com.cn/DFLOffical/dealer/nissan/fujian/fuzhou/fzzshfyu,Fuzhouhuayu@fengshenmotor.com,,,,http://www.chebaba.com/dealer_S2015072210291.htm,福建省,福州市
G2807,/Date(-62135596800000)/,,0,tencent://message/?Menu=yes&uin=&Site=ebuy.dongfeng-nissan.com.cn&Service=300&sigT=45a1e5847943b64c6ff3990f8a9e644d2b31356cb0b4ac6b24663a3c8dd0f8aa12a595b1714f9d45,119.309175,26.14556,a07651c1-a0f9-4c1a-b2c6-1b8f86c6587e,,False,,福州汇京福飞北,,0,0591-28065888,福州市晋安区新店镇龙头路108号（绕城高速入口旁）,http://www.dongfeng-nissan.com.cn/DFLOffical/dealer/nissan/fujian/fuzhou/fzhjffbei,fuzhouhuijingfufeibei-dmc@dfl.com.cn,,,,http://www.chebaba.com/dealer_S2015072201356.htm,福建省,福州市
G2801,/Date(-62135596800000)/,,0,tencent://message/?Menu=yes&uin=159591890&Site=ebuy.dongfeng-nissan.com.cn&Service=300&sigT=45a1e5847943b64c6ff3990f8a9e644d2b31356cb0b4ac6b24663a3c8dd0f8aa12a595b1714f9d45,119.357519,26.026925,6950545f-cfab-4c25-aca6-b119df36996e,,False,,福州中升福瑞,,0,0591-83539376,福州市仓山区后坂盖山投资区高旺路8号（丰泉环保仓山科技园内）,http://www.dongfeng-nissan.com.cn/DFLOffical/dealer/nissan/fujian/fuzhou/fzzshrui,fuzhouhuarui@fengshenmotor.com,,,,http://www.chebaba.com/dealer_S2015072210251.htm,福建省,福州市
G2823,/Date(-62135596800000)/,,0,tencent://message/?Menu=yes&uin=295958893&Site=ebuy.dongfeng-nissan.com.cn&Service=300&sigT=45a1e5847943b64c6ff3990f8a9e644d2b31356cb0b4ac6b24663a3c8dd0f8aa12a595b1714f9d45,116.961857,25.106962,bc4f776f-2d03-40cf-a26f-797513f1f85c,,False,,龙岩汇京龙兴,,0,0597-5371000,福建省龙岩市新罗区龙门镇物流大道305号西侧,http://www.dongfeng-nissan.com.cn/DFLOffical/dealer/nissan/fujian/longyan/lyhjlxing,295958893@qq.com ,,,,http://www.chebaba.com/dealer_S2015072210736.htm,福建省,龙岩市
G2817,/Date(-62135596800000)/,,0,tencent://message/?Menu=yes&uin=1542411383&Site=ebuy.dongfeng-nissan.com.cn&Service=300&sigT=45a1e5847943b64c6ff3990f8a9e644d2b31356cb0b4ac6b24663a3c8dd0f8aa12a595b1714f9d45,117.057454,25.130174,bb707917-2149-4e3b-88c4-439ddce5e78d,,False,,龙岩佳和,,0,0597-2891558,福建省龙岩市新罗区东兴路213号,http://www.dongfeng-nissan.com.cn/DFLOffical/dealer/nissan/fujian/longyan/lyjiahe,longyanjiahe-dmc@dfl.com.cn,,,,http://www.chebaba.com/dealer_S2015072210436.htm,福建省,龙岩市
G2821,/Date(-62135596800000)/,,0,tencent://message/?Menu=yes&uin=441580790&Site=ebuy.dongfeng-nissan.com.cn&Service=300&sigT=45a1e5847943b64c6ff3990f8a9e644d2b31356cb0b4ac6b24663a3c8dd0f8aa12a595b1714f9d45,118.319822,27.031211,33e17786-1922-4dc9-870e-b7af04d0c0a8,,False,,南平福鑫,,0,0599-3731158,福建省建瓯市水西路271号,http://www.dongfeng-nissan.com.cn/DFLOffical/dealer/nissan/fujian/nanping/npfxin,nanpingfuxin@fengshenmotor.com,,,,http://www.chebaba.com/dealer_S2015072210622.htm,福建省,南平市
G2819,/Date(-62135596800000)/,,0,tencent://message/?Menu=yes&uin=23734921&Site=ebuy.dongfeng-nissan.com.cn&Service=300&sigT=45a1e5847943b64c6ff3990f8a9e644d2b31356cb0b4ac6b24663a3c8dd0f8aa12a595b1714f9d45,119.568748,26.647248,07cef748-5d24-44fe-b514-bc7ae30c2f80,,False,,宁德和信东侨,,0,0593-2995888,福建省宁德市东桥开发区万安南路东风日产专营店,http://www.dongfeng-nissan.com.cn/DFLOffical/dealer/nissan/fujian/ningde/ndnfang,ningdenanfang@fengshenmotor.com,,,,http://www.chebaba.com/dealer_S2015072210481.htm,福建省,宁德市
G2818,/Date(-62135596800000)/,,0,tencent://message/?Menu=yes&uin=80553361&Site=ebuy.dongfeng-nissan.com.cn&Service=300&sigT=45a1e5847943b64c6ff3990f8a9e644d2b31356cb0b4ac6b24663a3c8dd0f8aa12a595b1714f9d45,119.048674,25.472728,e1826cca-3883-4dde-9c95-1fe9f45f1eed,,False,,莆田华宝,,0,0594-2939966,莆田市荔城区西天尾镇涵西大道899号,http://www.dongfeng-nissan.com.cn/DFLOffical/dealer/nissan/fujian/putian/pthbao,putianhuabao@fengshenmotor.com,,,,http://www.chebaba.com/dealer_S2015072210597.htm,福建省,莆田市
G2815,/Date(-62135596800000)/,,0,tencent://message/?Menu=yes&uin=165454177&Site=ebuy.dongfeng-nissan.com.cn&Service=300&sigT=45a1e5847943b64c6ff3990f8a9e644d2b31356cb0b4ac6b24663a3c8dd0f8aa12a595b1714f9d45,118.573321,24.796143,b21efbf8-338a-4d1f-adff-9670d8777248,,False,,晋江汇京豪信,,0,0595-86771666,晋江市泉安南路福埔新华都广场旁（海事局对面）,http://www.dongfeng-nissan.com.cn/DFLOffical/dealer/nissan/fujian/quanzhou/jjhjhxin,jinjianghuijinghaoxin@fengshenmotor.com,,,,http://www.chebaba.com/dealer_S2015072210336.htm,福建省,泉州市
G2820,/Date(-62135596800000)/,,0,tencent://message/?Menu=yes&uin=2246424527&Site=ebuy.dongfeng-nissan.com.cn&Service=300&sigT=45a1e5847943b64c6ff3990f8a9e644d2b31356cb0b4ac6b24663a3c8dd0f8aa12a595b1714f9d45,118.645598,24.928291,608752a5-9a6a-4061-b23d-72a8c31db0bc,,False,,泉州汇京亿兴,,0,0595-86730999,福建省泉州市丰泽区城东老火车站对面（华大方向）,http://www.dongfeng-nissan.com.cn/DFLOffical/dealer/nissan/fujian/quanzhou/qzhjyxing,Quanzhouhuijingyixing@fengshenmotor.com,,,,http://www.chebaba.com/dealer_S2015072210426.htm,福建省,泉州市
G2828,/Date(-62135596800000)/,,0,tencent://message/?Menu=yes&uin=&Site=ebuy.dongfeng-nissan.com.cn&Service=300&sigT=45a1e5847943b64c6ff3990f8a9e644d2b31356cb0b4ac6b24663a3c8dd0f8aa12a595b1714f9d45,118.603531,24.775438,dccb129f-913f-4d82-970e-00172a6b5fb4,,False,,泉州汇京亿利,,0,0595-36000001,福建省晋江市新塘街道上郭天桥旁东风日产汇京亿利专营店,http://www.dongfeng-nissan.com.cn/DFLOffical/dealer/nissan/fujian/quanzhou/qzhjyli,quanzhouhuijingyili@dfl.com.cn,,,,http://www.chebaba.com/dealer_S2015072201354.htm,福建省,泉州市
G2812,/Date(-62135596800000)/,,0,tencent://message/?Menu=yes&uin=1678214266&Site=ebuy.dongfeng-nissan.com.cn&Service=300&sigT=45a1e5847943b64c6ff3990f8a9e644d2b31356cb0b4ac6b24663a3c8dd0f8aa12a595b1714f9d45,118.558468,24.880059,8b24b138-e83a-42f8-9676-54de4b09ab4f,,False,,泉州汇京银河,,0,0595-86738000,泉州清骶济开发区福厦路吉泰路交叉口（奥林匹克花园斜对面）,http://www.dongfeng-nissan.com.cn/DFLOffical/dealer/nissan/fujian/quanzhou/qzhjyhe,quanzhouhuijingyinhe@fengshenmotor.com,,,,http://www.chebaba.com/dealer_S2015072210381.htm,福建省,泉州市
G2825,/Date(-62135596800000)/,,0,tencent://message/?Menu=yes&uin=290314396&Site=ebuy.dongfeng-nissan.com.cn&Service=300&sigT=45a1e5847943b64c6ff3990f8a9e644d2b31356cb0b4ac6b24663a3c8dd0f8aa12a595b1714f9d45,118.241277,25.052399,071a32e0-0001-4106-8841-4becbda52a5e,,False,,泉州汇京友联,,0,0595-36115888,泉州市安溪县城厢镇涝港开发区友联汽车城（茶都往泉州方向2公里）,http://www.dongfeng-nissan.com.cn/DFLOffical/dealer/nissan/fujian/quanzhou/qzhjylian,290314396@qq.com,,,,http://www.chebaba.com/dealer_S2015072210752.htm,福建省,泉州市
G2822,/Date(-62135596800000)/,,0,tencent://message/?Menu=yes&uin=243897683&Site=ebuy.dongfeng-nissan.com.cn&Service=300&sigT=45a1e5847943b64c6ff3990f8a9e644d2b31356cb0b4ac6b24663a3c8dd0f8aa12a595b1714f9d45,117.656262,26.301237,fb9070f2-6619-47ea-a084-6a80c61aa222,,False,,三明中升华荣,,0,0598-8666999,福建省三明市梅列区翁墩物流工业园区,http://www.dongfeng-nissan.com.cn/DFLOffical/dealer/nissan/fujian/sanming/smhrong,sanminghuarong@dfl.com.cn,,,,http://www.chebaba.com/dealer_S2015072210664.htm,福建省,三明市
G2831,/Date(-62135596800000)/,,0,tencent://message/?Menu=yes&uin=&Site=ebuy.dongfeng-nissan.com.cn&Service=300&sigT=45a1e5847943b64c6ff3990f8a9e644d2b31356cb0b4ac6b24663a3c8dd0f8aa12a595b1714f9d45,118.148042,24.708297,2735fc8e-cc1e-42a2-9352-31fa5dc11acb,,False,,厦门塞尔福和顺,,0,0592-3211777,厦门市同安区集安路787-789号,http://www.dongfeng-nissan.com.cn/DFLOffical/dealer/nissan/fujian/xiamen/shamensaierfuheshun,xiamensaierfuheshun@dfl.com.cn,,,,,福建省,厦门市
G2830,/Date(-62135596800000)/,,0,tencent://message/?Menu=yes&uin=&Site=ebuy.dongfeng-nissan.com.cn&Service=300&sigT=45a1e5847943b64c6ff3990f8a9e644d2b31356cb0b4ac6b24663a3c8dd0f8aa12a595b1714f9d45,118.155265,24.523358,bebd9831-8f8c-4a6b-ac7f-5a1afc0d0209,,False,,厦门塞尔福金湖,,0,0592-5761788,厦门市湖里区金湖路5号,http://www.dongfeng-nissan.com.cn/DFLOffical/dealer/nissan/fujian/xiamen/SHAMENSAIERFUJINHU,xiamensaierfujinhu@dfl.com.cn,,,,,福建省,厦门市
G2829,/Date(-62135596800000)/,,0,tencent://message/?Menu=yes&uin=2530052646&Site=ebuy.dongfeng-nissan.com.cn&Service=300&sigT=45a1e5847943b64c6ff3990f8a9e644d2b31356cb0b4ac6b24663a3c8dd0f8aa12a595b1714f9d45,118.020237,24.494555,56c2e82c-9962-4d89-b1d7-efc7830332e2,,False,,厦门瑞荣嘉诚海沧,,0,0592-3206666,厦门市海沧区马青路1233-3号,http://www.dongfeng-nissan.com.cn/DFLOffical/dealer/nissan/fujian/xiamen/xmrrjchcang,xiamenruirongjiachenghaicang@dfi.com.cn,,,,http://www.chebaba.com/dealer_S2015072201071.htm,福建省,厦门市
G2827,/Date(-62135596800000)/,,0,tencent://message/?Menu=yes&uin=673808912&Site=ebuy.dongfeng-nissan.com.cn&Service=300&sigT=45a1e5847943b64c6ff3990f8a9e644d2b31356cb0b4ac6b24663a3c8dd0f8aa12a595b1714f9d45,118.134496,24.556007,fe8561ce-7be4-4222-b985-9a3e36c52797,,False,,厦门塞尔福滨海,,0,0592-3215111,福建省厦门市湖里区现代物流园区机场北区航空港物流园区A3之十（定损中心旁）,http://www.dongfeng-nissan.com.cn/DFLOffical/dealer/nissan/fujian/xiamen/xmsefbhai,676217562@qq.com,,,,http://www.chebaba.com/dealer_S2015072201048.htm,福建省,厦门市
G2813,/Date(-62135596800000)/,,0,tencent://message/?Menu=yes&uin=12681881&Site=ebuy.dongfeng-nissan.com.cn&Service=300&sigT=45a1e5847943b64c6ff3990f8a9e644d2b31356cb0b4ac6b24663a3c8dd0f8aa12a595b1714f9d45,117.81025,24.453059,cb945802-9ac5-4b43-abfd-e4085a8ac11a,,False,,漳州聚力,,0,"0596-2131666 , 0596-2131010",漳州市迎宾大道蓝田工业开发区横一路中段店面,http://www.dongfeng-nissan.com.cn/DFLOffical/dealer/nissan/fujian/zhangzhou/zzjli,zhangzhoujuli@fengshenmotor.com ,,,,http://www.chebaba.com/dealer_S2015072210391.htm,福建省,漳州市
G2826,/Date(-62135596800000)/,,0,tencent://message/?Menu=yes&uin=2815742897&Site=ebuy.dongfeng-nissan.com.cn&Service=300&sigT=45a1e5847943b64c6ff3990f8a9e644d2b31356cb0b4ac6b24663a3c8dd0f8aa12a595b1714f9d45,117.704037,24.537173,bc4dcab1-9f80-487b-b254-2e2845e8e409,,False,,漳州聚力合兴,,0,0596-5011888,漳州市龙文区蓝田经济开发区北一号路,http://www.dongfeng-nissan.com.cn/DFLOffical/dealer/nissan/fujian/zhangzhou/zzjlhxing,,,,,http://www.chebaba.com/dealer_S2015072210790.htm,福建省,漳州市
C1316,/Date(-62135596800000)/,,0,tencent://message/?Menu=yes&uin=2982171389&Site=ebuy.dongfeng-nissan.com.cn&Service=300&sigT=45a1e5847943b64c6ff3990f8a9e644d2b31356cb0b4ac6b24663a3c8dd0f8aa12a595b1714f9d45,104.644283,35.551067,76d90363-8b57-452a-9b76-293f6f30a2f1,,False,,定西恒信东顺,,0,400-872-9667,甘肃省定西市安定区南川经济开发区向南500米定西恒信日产专营店,http://www.dongfeng-nissan.com.cn/DFLOffical/dealer/nissan/gansu/dingxidiqu/dxhxdshun,2982171389@qq.com,,,,http://www.chebaba.com/dealer_S2015072201092.htm,甘肃省,定西地区
C1311,/Date(-62135596800000)/,,0,tencent://message/?Menu=yes&uin=308686075&Site=ebuy.dongfeng-nissan.com.cn&Service=300&sigT=45a1e5847943b64c6ff3990f8a9e644d2b31356cb0b4ac6b24663a3c8dd0f8aa12a595b1714f9d45,98.426859,39.767899,24f0acce-cae4-482b-90f9-078e1183fc4d,,False,,酒泉良志,,0,0937-2855180,酒泉市肃州区西郊工业风光大厦向东800米,http://www.dongfeng-nissan.com.cn/DFLOffical/dealer/nissan/gansu/jiuquan/jqlzhi,nissan0937@163.com,,,,http://www.chebaba.com/dealer_S2015072210737.htm,甘肃省,酒泉地区
C1302,/Date(-62135596800000)/,,0,tencent://message/?Menu=yes&uin=29847995&Site=ebuy.dongfeng-nissan.com.cn&Service=300&sigT=45a1e5847943b64c6ff3990f8a9e644d2b31356cb0b4ac6b24663a3c8dd0f8aa12a595b1714f9d45,103.870616,36.075907,a1b45ebb-fba3-46ae-87cd-b6d8738bff1a,,False,,兰州良志,,0,0931-8507611,甘肃省兰州市城关区天水北路良志嘉年华一期南侧良志汽车城,http://www.dongfeng-nissan.com.cn/DFLOffical/dealer/nissan/gansu/lanzhou/lzlzhi,29847995@qq.com,,,,http://www.chebaba.com/dealer_S2015072210259.htm,甘肃省,兰州市
C1303,/Date(-62135596800000)/,,0,tencent://message/?Menu=yes&uin=1811411251&Site=ebuy.dongfeng-nissan.com.cn&Service=300&sigT=45a1e5847943b64c6ff3990f8a9e644d2b31356cb0b4ac6b24663a3c8dd0f8aa12a595b1714f9d45,103.652869,36.133943,d4086802-4637-4ecf-ba15-261a3bbf886a,,False,,兰州泰华,,0,0931-2144666,甘肃省兰州市西固区环形东路296号,http://www.dongfeng-nissan.com.cn/DFLOffical/dealer/nissan/gansu/lanzhou/lzthua,,,,,http://www.chebaba.com/dealer_S2015072210909.htm,甘肃省,兰州市
C1301,/Date(-62135596800000)/,,0,tencent://message/?Menu=yes&uin=610361261&Site=ebuy.dongfeng-nissan.com.cn&Service=300&sigT=45a1e5847943b64c6ff3990f8a9e644d2b31356cb0b4ac6b24663a3c8dd0f8aa12a595b1714f9d45,103.832953,36.11882,942c1e53-1bc4-4486-9eb3-3a252194fe64,,False,,兰州鑫通,,0,0931-2331999,甘肃省兰州市城关区北龙口永新化工园区路口,http://www.dongfeng-nissan.com.cn/DFLOffical/dealer/nissan/gansu/lanzhou/lzxtong,lanzhouxintong@fengshenmotor.com,,,,http://www.chebaba.com/dealer_S2015072210299.htm,甘肃省,兰州市
C1215,/Date(-62135596800000)/,,0,tencent://message/?Menu=yes&uin=&Site=ebuy.dongfeng-nissan.com.cn&Service=300&sigT=45a1e5847943b64c6ff3990f8a9e644d2b31356cb0b4ac6b24663a3c8dd0f8aa12a595b1714f9d45,103.22749,35.56855,4ebfe77b-f47d-4773-b987-1d74cccdbe18,,False,,临夏环球万腾,,0,0930-6667111,临夏市南龙镇马家庄牛津河大道中段,http://www.dongfeng-nissan.com.cn/DFLOffical/dealer/nissan/gansu/linxia/lxhqwteng,linxiahuanqiuwanteng@dfl.com,,,,http://www.chebaba.com/dealer_S20151029696556.htm,甘肃省,临夏市
C1315,/Date(-62135596800000)/,,0,tencent://message/?Menu=yes&uin=2864037069&Site=ebuy.dongfeng-nissan.com.cn&Service=300&sigT=45a1e5847943b64c6ff3990f8a9e644d2b31356cb0b4ac6b24663a3c8dd0f8aa12a595b1714f9d45,106.767059,35.517208,dbe4e9ce-e1bb-4f89-862e-e60fd0afcc66,,False,,平凉恒信东顺东湖,,0,0933-8695550,平凉市工业园区东一路,http://www.dongfeng-nissan.com.cn/DFLOffical/dealer/nissan/gansu/pingliangdiqu/plhxdsdhu,1744693304@qq.com,,,,http://www.chebaba.com/dealer_S2015072201094.htm,甘肃省,平凉地区
C1317,/Date(-62135596800000)/,,0,tencent://message/?Menu=yes&uin=&Site=ebuy.dongfeng-nissan.com.cn&Service=300&sigT=45a1e5847943b64c6ff3990f8a9e644d2b31356cb0b4ac6b24663a3c8dd0f8aa12a595b1714f9d45,107.628219,35.772275,58d81c12-ce00-4b7b-9ae1-9583a3704995,,False,,庆阳良志陇东汽车城,,0,0934-8668688,甘肃省庆阳市西峰区西环路北段陇东汽车城,http://www.dongfeng-nissan.com.cn/DFLOffical/dealer/nissan/gansu/qingyang/qylzldqccheng,qingyangliangzhilongdongqichecheng@dfl.com.cn,,,,http://www.chebaba.com/dealer_S2015072201303.htm,甘肃省,庆阳地区
C1313,/Date(-62135596800000)/,,0,tencent://message/?Menu=yes&uin=2650078656&Site=ebuy.dongfeng-nissan.com.cn&Service=300&sigT=45a1e5847943b64c6ff3990f8a9e644d2b31356cb0b4ac6b24663a3c8dd0f8aa12a595b1714f9d45,104.138766,36.519661,5b516d78-02c7-4418-9038-317b4c4d186a,,False,,白银恒信东顺,,0,0943-8836777,甘肃省白银市白银区中小企业创业基地,http://www.dongfeng-nissan.com.cn/DFLOffical/dealer/nissan/gansu/silver/byhxdshun,baiyinhengxindongshun@dfl.com.cn,,,,http://www.chebaba.com/dealer_S2015072210991.htm,甘肃省,白银市
C1312,/Date(-62135596800000)/,,0,tencent://message/?Menu=yes&uin=1270089532&Site=ebuy.dongfeng-nissan.com.cn&Service=300&sigT=45a1e5847943b64c6ff3990f8a9e644d2b31356cb0b4ac6b24663a3c8dd0f8aa12a595b1714f9d45,105.787439,34.578383,3db5ebf8-bc25-4527-b18c-8c87930943dc,,False,,天水良志,,0,0938-8385598,甘肃省天水市秦州区东十里工业园区(飞天雕漆公司隔壁）,http://www.dongfeng-nissan.com.cn/DFLOffical/dealer/nissan/gansu/tianshui/tslzhi,tianshuiliangzhi@126.com,,,,http://www.chebaba.com/dealer_S2015072210973.htm,甘肃省,天水市
C1318,/Date(-62135596800000)/,,0,tencent://message/?Menu=yes&uin=52758324&Site=ebuy.dongfeng-nissan.com.cn&Service=300&sigT=45a1e5847943b64c6ff3990f8a9e644d2b31356cb0b4ac6b24663a3c8dd0f8aa12a595b1714f9d45,102.666888,37.917339,3042cd9e-5628-4d4c-aa0f-ee2059ff5e13,,False,,武威鑫成,,0,0935-6356777,武威市凉州区天马大道西段武威汽车城（凉州职业中专对面）,http://www.dongfeng-nissan.com.cn/DFLOffical/dealer/nissan/gansu/wuwei/wwzcheng,wuweixinchengs@dfl.com.cn,,,,http://www.chebaba.com/dealer_S2015072201147.htm,甘肃省,武威地区
C1319,/Date(-62135596800000)/,,0,tencent://message/?Menu=yes&uin=&Site=ebuy.dongfeng-nissan.com.cn&Service=300&sigT=45a1e5847943b64c6ff3990f8a9e644d2b31356cb0b4ac6b24663a3c8dd0f8aa12a595b1714f9d45,100.408201,38.94066,4428de73-f106-45fd-b582-b5c37d68a8dc,,False,,张掖泰成,,0,0936-8567000,张掖市甘州区滨河新区西三环，绿洲现代物流园区汽车城。,http://www.dongfeng-nissan.com.cn/DFLOffical/dealer/nissan/gansu/zhangye/zytcheng,zhangyetaicheng@dfl.com.cn,,,,http://www.chebaba.com/dealer_S20151132762418.htm ,甘肃省,张掖地区
H2995,/Date(-62135596800000)/,,0,tencent://message/?Menu=yes&uin=&Site=ebuy.dongfeng-nissan.com.cn&Service=300&sigT=45a1e5847943b64c6ff3990f8a9e644d2b31356cb0b4ac6b24663a3c8dd0f8aa12a595b1714f9d45,116.612281,23.685592,1b1d77ad-673c-46af-8a9c-bcb7cfe536ab,,False,,潮州侨山,,0,0768-2852138,潮州市潮州大道北端东风日产专营店,http://www.dongfeng-nissan.com.cn/DFLOffical/dealer/nissan/guangdong/chaozhou/CHAOZHOUQIAOSHAN,chaozhouqiaoshan@dfl.com.cn,,,,,广东省,潮州市
H2953,/Date(-62135596800000)/,,0,tencent://message/?Menu=yes&uin=346699758&Site=ebuy.dongfeng-nissan.com.cn&Service=300&sigT=45a1e5847943b64c6ff3990f8a9e644d2b31356cb0b4ac6b24663a3c8dd0f8aa12a595b1714f9d45,113.884544,23.103421,55cf3ce3-7880-49e2-b247-1d890c098dd1,,False,,东莞东风南方莞龙,,0,0769-81389981,东莞市石龙镇西湖东路155号,http://www.dongfeng-nissan.com.cn/DFLOffical/dealer/nissan/guangdong/dongguan/dgglong,Dongguandongshenguanlong@fenghshenmotor.com,,,,http://www.chebaba.com/dealer_S2015072210530.htm,广东省,东莞市
H2926,/Date(-62135596800000)/,,0,tencent://message/?Menu=yes&uin=764077250&Site=ebuy.dongfeng-nissan.com.cn&Service=300&sigT=45a1e5847943b64c6ff3990f8a9e644d2b31356cb0b4ac6b24663a3c8dd0f8aa12a595b1714f9d45,113.785666,22.950416,6cd0c3bb-fab1-49cb-b62b-10e492c73d59,,False,,东莞东风南方大兴,,0,0769-22672318,东莞市东城区莞长路牛山管理区上山门村,http://www.dongfeng-nissan.com.cn/DFLOffical/dealer/nissan/guangdong/dongguan/dgdaxing,dongguandongfengnanfangdaxing@dfl.com.cn,,,,http://www.chebaba.com/dealer_S2015072210482.htm,广东省,东莞市
H2981,/Date(-62135596800000)/,,0,tencent://message/?Menu=yes&uin=1745836251&Site=ebuy.dongfeng-nissan.com.cn&Service=300&sigT=45a1e5847943b64c6ff3990f8a9e644d2b31356cb0b4ac6b24663a3c8dd0f8aa12a595b1714f9d45,113.799996,22.787999,6b5a22f3-1bce-40bc-8f0f-870e84bf147d,,False,,东莞东风南方振安,,0,0769-89391999,广东省东莞市长安镇乌纱蔡屋振荣路2号A,http://www.dongfeng-nissan.com.cn/DFLOffical/dealer/nissan/guangdong/dongguan/dgzan,1745836251@qq.com,,,,http://www.chebaba.com/dealer_S2015072201044.htm,广东省,东莞市
H2940,/Date(-62135596800000)/,,0,tencent://message/?Menu=yes&uin=2994562029&Site=ebuy.dongfeng-nissan.com.cn&Service=300&sigT=45a1e5847943b64c6ff3990f8a9e644d2b31356cb0b4ac6b24663a3c8dd0f8aa12a595b1714f9d45,114.085761,22.910417,3d7e6d0f-047d-4227-aaeb-e6002e4e379c,,False,,东莞东风南方东深,,0,0769-87700811,东莞市樟木头镇东深大道景福路交警大队旁,http://www.dongfeng-nissan.com.cn/DFLOffical/dealer/nissan/guangdong/dongguan/dgdshen,dongguands@126.com,,,,http://www.chebaba.com/dealer_S2015072210529.htm,广东省,东莞市
H2918,/Date(-62135596800000)/,,0,tencent://message/?Menu=yes&uin=675121951&Site=ebuy.dongfeng-nissan.com.cn&Service=300&sigT=45a1e5847943b64c6ff3990f8a9e644d2b31356cb0b4ac6b24663a3c8dd0f8aa12a595b1714f9d45,113.731687,23.004176,c53c7724-fe9f-40dd-9077-5057476a19c8,,False,,东莞东风南方莞太,,0,0769-22985901,东莞市南城区莞太路周溪段172号（广彩城斜对面）,http://www.dongfeng-nissan.com.cn/DFLOffical/dealer/nissan/guangdong/dongguan/dggtai,dongguandongshenguantai@fengshenmotor.com,,,,http://www.chebaba.com/dealer_S2015012313547.htm,广东省,东莞市
H2936,/Date(-62135596800000)/,,0,tencent://message/?Menu=yes&uin=652317259&Site=ebuy.dongfeng-nissan.com.cn&Service=300&sigT=45a1e5847943b64c6ff3990f8a9e644d2b31356cb0b4ac6b24663a3c8dd0f8aa12a595b1714f9d45,113.872888,23.01769,63d506e8-696b-4d97-970b-b855ddc0efea,,False,,东莞东风南方莞樟,,0,0769-83523035,东莞市寮步镇莞樟路富竹山路段,http://www.dongfeng-nissan.com.cn/DFLOffical/dealer/nissan/guangdong/dongguan/dggzhang,dongguandongshenguanzhang@fengshenmotor.com,,,,http://www.chebaba.com/dealer_S2015072210521.htm,广东省,东莞市
H2955,/Date(-62135596800000)/,,0,tencent://message/?Menu=yes&uin=1049088657&Site=ebuy.dongfeng-nissan.com.cn&Service=300&sigT=45a1e5847943b64c6ff3990f8a9e644d2b31356cb0b4ac6b24663a3c8dd0f8aa12a595b1714f9d45,113.685511,22.954385,493a71e1-28e2-4b8f-be8a-3a9d1879773e,,False,,东莞东风南方东兴,,0,0769-85038200,东莞市莞太路厚街镇三屯路口(国际家具正对面),http://www.dongfeng-nissan.com.cn/DFLOffical/dealer/nissan/guangdong/dongguan/dgdongxing,dongguandongshendongxing@fengshenmotor.com,,,,http://www.chebaba.com/dealer_S2015072210554.htm,广东省,东莞市
H2939,/Date(-62135596800000)/,,0,tencent://message/?Menu=yes&uin=1079962740&Site=ebuy.dongfeng-nissan.com.cn&Service=300&sigT=45a1e5847943b64c6ff3990f8a9e644d2b31356cb0b4ac6b24663a3c8dd0f8aa12a595b1714f9d45,113.683356,22.860341,8779bad2-11fd-4298-9dad-80dcaeb7aee2,,False,,东莞东风南方东益,,0,0769-85199966,东莞市虎门镇白沙村317号,http://www.dongfeng-nissan.com.cn/DFLOffical/dealer/nissan/guangdong/dongguan/dgdyi,dongguandongfengnanfangdongyi@dfl.com.cn,,,,http://www.chebaba.com/dealer_S2015072210522.htm,广东省,东莞市
H2990,/Date(-62135596800000)/,,0,tencent://message/?Menu=yes&uin=&Site=ebuy.dongfeng-nissan.com.cn&Service=300&sigT=45a1e5847943b64c6ff3990f8a9e644d2b31356cb0b4ac6b24663a3c8dd0f8aa12a595b1714f9d45,114.111167,22.850975,26035f98-bb30-4554-a515-8716c9ced30b,,False,,东莞东风南方塘厦,,0,0769-82955111,广东省东莞市塘厦镇林村新阳三路1号,http://www.dongfeng-nissan.com.cn/DFLOffical/dealer/nissan/guangdong/dongguan/dzdfnftxia,dongguandongfengnanfangtangxia@dfl.com.cn,,,,http://www.chebaba.com/dealer_S2015072201117.htm,广东省,东莞市
H2959,/Date(-62135596800000)/,,0,tencent://message/?Menu=yes&uin=78513515&Site=ebuy.dongfeng-nissan.com.cn&Service=300&sigT=45a1e5847943b64c6ff3990f8a9e644d2b31356cb0b4ac6b24663a3c8dd0f8aa12a595b1714f9d45,113.9785,22.95758,c8ce909f-4ae6-474b-8d1c-0bf579039c8f,,False,,东莞东风南方金美,,0,0769-89926666,东莞常平镇金美村环城路与常朗大道交界处,http://www.dongfeng-nissan.com.cn/DFLOffical/dealer/nissan/guangdong/dongguan/dgjmei,306517026@qq.com,,,,http://www.chebaba.com/dealer_S2015072210694.htm,广东省,东莞市
H2966,/Date(-62135596800000)/,,0,tencent://message/?Menu=yes&uin=305849089&Site=ebuy.dongfeng-nissan.com.cn&Service=300&sigT=45a1e5847943b64c6ff3990f8a9e644d2b31356cb0b4ac6b24663a3c8dd0f8aa12a595b1714f9d45,114.14275,22.71145,c7b0c5fe-efd8-4aa3-b39e-0a192b9fba67,,False,,东莞东风南方龙平,,0,0769-82097333,东莞市凤岗镇龙平西路218号(宏盈工业区对面),http://www.dongfeng-nissan.com.cn/DFLOffical/dealer/nissan/guangdong/dongguan/dglping,596818083@qq.com,,,,http://www.chebaba.com/dealer_S2015072210509.htm,广东省,东莞市
H2915,/Date(-62135596800000)/,,0,tencent://message/?Menu=yes&uin=1420396673&Site=ebuy.dongfeng-nissan.com.cn&Service=300&sigT=45a1e5847943b64c6ff3990f8a9e644d2b31356cb0b4ac6b24663a3c8dd0f8aa12a595b1714f9d45,113.138899,23.074473,208ba4b0-d371-4926-b48d-fa159982f998,,False,,佛山利泰,,0,0757-86362808,佛山市南海区华南汽车城桂城海八路中心洲东风日产利泰专营店,http://www.dongfeng-nissan.com.cn/DFLOffical/dealer/nissan/guangdong/foshan/fsltai,fslt@lited.com,,,,http://www.chebaba.com/dealer_S2015036909267.htm,广东省,佛山市
H2935,/Date(-62135596800000)/,,0,tencent://message/?Menu=yes&uin=1104664264&Site=ebuy.dongfeng-nissan.com.cn&Service=300&sigT=45a1e5847943b64c6ff3990f8a9e644d2b31356cb0b4ac6b24663a3c8dd0f8aa12a595b1714f9d45,113.039475,22.958944,b86471ae-c89c-465c-971d-9e53d277800b,,False,,佛山吉泰,,0,0757-85396990,佛山市南庄镇吉利大道西吉利工业园利源一路1号,http://www.dongfeng-nissan.com.cn/DFLOffical/dealer/nissan/guangdong/foshan/fsjtai,foshanjitai@fengshenmotor.com,,,,http://www.chebaba.com/dealer_S2015072210230.htm,广东省,佛山市
H2975,/Date(-62135596800000)/,,0,tencent://message/?Menu=yes&uin=2339230720&Site=ebuy.dongfeng-nissan.com.cn&Service=300&sigT=45a1e5847943b64c6ff3990f8a9e644d2b31356cb0b4ac6b24663a3c8dd0f8aa12a595b1714f9d45,113.101082,22.865952,896bb94f-2632-4e97-a5a5-e052f5d246ed,,False,,顺德庆丰龙江,,0,0757-28089788,广东省佛山市顺德区龙江镇龙江洲西路52号,http://www.dongfeng-nissan.com.cn/DFLOffical/dealer/nissan/guangdong/foshan/sdqfljiang,2339230720@qq.com,,,,http://www.chebaba.com/dealer_S2015072201054.htm,广东省,佛山市
H2941,/Date(-62135596800000)/,,0,tencent://message/?Menu=yes&uin=191266827&Site=ebuy.dongfeng-nissan.com.cn&Service=300&sigT=45a1e5847943b64c6ff3990f8a9e644d2b31356cb0b4ac6b24663a3c8dd0f8aa12a595b1714f9d45,113.25932,22.951373,762a4901-383a-45ed-922c-68cb0fe8a4fc,,False,,顺德东炬,,0,0757-23602308,佛山市顺德区北蛘105国道与佛陈路交界处（佛碧路2号）,http://www.dongfeng-nissan.com.cn/DFLOffical/dealer/nissan/guangdong/foshan/sdqfeng,191266827@qq.com,,,,http://www.chebaba.com/dealer_S2015072210445.htm,广东省,佛山市
H2927,/Date(-62135596800000)/,,0,tencent://message/?Menu=yes&uin=1600405389&Site=ebuy.dongfeng-nissan.com.cn&Service=300&sigT=45a1e5847943b64c6ff3990f8a9e644d2b31356cb0b4ac6b24663a3c8dd0f8aa12a595b1714f9d45,113.187042,23.041611,b774e7fb-5b08-4489-b7bb-e6ba84323aa2,,False,,南海雄峰,,0,0757-86718881,佛山市南海区佛平四路雄峰车城6号（一环佛平路出口东行）,http://www.dongfeng-nissan.com.cn/DFLOffical/dealer/nissan/guangdong/foshan/nhxfeng,nanhaixiongfeng@dfl.com.cn,,,,http://www.chebaba.com/dealer_S2015072210310.htm,广东省,佛山市
H2958,/Date(-62135596800000)/,,0,tencent://message/?Menu=yes&uin=450292912&Site=ebuy.dongfeng-nissan.com.cn&Service=300&sigT=45a1e5847943b64c6ff3990f8a9e644d2b31356cb0b4ac6b24663a3c8dd0f8aa12a595b1714f9d45,113.106509,23.013864,b3a7c3c9-9443-4e1b-9a14-daf6f482b81f,,False,,佛山禅车城,,0,0757-83966018,佛山市禅城区佛山大道中83号佛山（国际）车城北区七座,http://www.dongfeng-nissan.com.cn/DFLOffical/dealer/nissan/guangdong/foshan/fscccheng,450292912@qq.com,,,,http://www.chebaba.com/dealer_S2015072210656.htm,广东省,佛山市
H2956,/Date(-62135596800000)/,,0,tencent://message/?Menu=yes&uin=326043708&Site=ebuy.dongfeng-nissan.com.cn&Service=300&sigT=45a1e5847943b64c6ff3990f8a9e644d2b31356cb0b4ac6b24663a3c8dd0f8aa12a595b1714f9d45,112.926094,23.226563,f57e5bf4-3aef-4faf-8a84-7205b1ddf996,,False,,佛山利隆,,0,0757-87789188,佛山市三水区西南街道南丰大道石湖洲,http://www.dongfeng-nissan.com.cn/DFLOffical/dealer/nissan/guangdong/foshan/fsllong,foshanlilong@dfl.com.cn,,,,http://www.chebaba.com/dealer_S2015072210555.htm,广东省,佛山市
H2979,/Date(-62135596800000)/,,0,tencent://message/?Menu=yes&uin=2093867517&Site=ebuy.dongfeng-nissan.com.cn&Service=300&sigT=45a1e5847943b64c6ff3990f8a9e644d2b31356cb0b4ac6b24663a3c8dd0f8aa12a595b1714f9d45,112.908693,22.884424,f5d82f56-c180-4983-b016-b4a7864297c5,,False,,佛山明泰,,0,0757-88263371,佛山市高明区荷城街道万成路和高明大道交汇处,http://www.dongfeng-nissan.com.cn/DFLOffical/dealer/nissan/guangdong/foshan/fsmtai,foshanmingtai@dfl.com.cn,,,,http://www.chebaba.com/dealer_S2015072201110.htm,广东省,佛山市
H2967,/Date(-62135596800000)/,,0,tencent://message/?Menu=yes&uin=891523054&Site=ebuy.dongfeng-nissan.com.cn&Service=300&sigT=45a1e5847943b64c6ff3990f8a9e644d2b31356cb0b4ac6b24663a3c8dd0f8aa12a595b1714f9d45,113.176541,23.17477,f1c65305-69e5-4fc6-9486-eab9dd5dd4c9,,False,,佛山广物锐祥,,0,0757-85619188,佛山南海里水镇佛山一环东水口路出口200米东风日产广物锐祥专营店,http://www.dongfeng-nissan.com.cn/DFLOffical/dealer/nissan/guangdong/foshan/fsgwrxiang,foshanguangwruixiang@dfl.com.cn,,,,http://www.chebaba.com/dealer_S2015072210630.htm,广东省,佛山市
H2916,/Date(-62135596800000)/,,0,tencent://message/?Menu=yes&uin=576707153&Site=ebuy.dongfeng-nissan.com.cn&Service=300&sigT=45a1e5847943b64c6ff3990f8a9e644d2b31356cb0b4ac6b24663a3c8dd0f8aa12a595b1714f9d45,113.236761,22.863846,e49b6de1-98d9-4d9b-833c-34fb8c4371ff,,False,,顺德协力,,0,0757-22218999,佛山市顺德区大良广珠公路新松路段新协力汽车城,http://www.dongfeng-nissan.com.cn/DFLOffical/dealer/nissan/guangdong/foshan/sdxli,shundexieli@dfl.com.cn,,,,http://www.chebaba.com/dealer_S2015072210400.htm,广东省,佛山市
H2963,/Date(-62135596800000)/,,0,tencent://message/?Menu=yes&uin=&Site=ebuy.dongfeng-nissan.com.cn&Service=300&sigT=45a1e5847943b64c6ff3990f8a9e644d2b31356cb0b4ac6b24663a3c8dd0f8aa12a595b1714f9d45,113.283706,22.751934,01e07583-8247-4a13-b744-a68396ff59bc,,False,,顺德金桂,,0,0757-29812666,佛山市顺德区容桂镇海尾社区广胜二街20号（105国道旁）,http://www.dongfeng-nissan.com.cn/DFLOffical/dealer/nissan/guangdong/foshan/sdjgui,shundejinguicoc@dfl.com.cn,,,,http://www.chebaba.com/dealer_S2015072210971.htm,广东省,佛山市
H2992,/Date(-62135596800000)/,,0,tencent://message/?Menu=yes&uin=&Site=ebuy.dongfeng-nissan.com.cn&Service=300&sigT=45a1e5847943b64c6ff3990f8a9e644d2b31356cb0b4ac6b24663a3c8dd0f8aa12a595b1714f9d45,113.216151,23.433539,23afb7c7-5085-4870-bcf0-37f77c71b498,,False,,广州绿日,,0,020-36878111,广州市花都区平步大道60号（南菱丰田斜对面）,http://www.dongfeng-nissan.com.cn/DFLOffical/dealer/nissan/guangdong/guangzhou/gzlvri,guangzhoulvri@dfl.com.cn,,,,http://www.chebaba.com/dealer_S2015072201292.htm,广东省,广州市
H2972,/Date(-62135596800000)/,,0,tencent://message/?Menu=yes&uin=1437838004&Site=ebuy.dongfeng-nissan.com.cn&Service=300&sigT=45a1e5847943b64c6ff3990f8a9e644d2b31356cb0b4ac6b24663a3c8dd0f8aa12a595b1714f9d45,113.409561,22.949193,b1017c28-83aa-4071-9290-f0e024d4fab5,,False,,广州东风南方广辰,,0,020-66600226,广州市番禺区大龙街市莲路傍江西村段10号,http://www.dongfeng-nissan.com.cn/DFLOffical/dealer/nissan/guangdong/guangzhou/gzgchen,gzdfnfgc@qq.com,,,,http://www.chebaba.com/dealer_S2015072210902.htm,广东省,广州市
H2902,/Date(-62135596800000)/,,0,tencent://message/?Menu=yes&uin=1335202289&Site=ebuy.dongfeng-nissan.com.cn&Service=300&sigT=45a1e5847943b64c6ff3990f8a9e644d2b31356cb0b4ac6b24663a3c8dd0f8aa12a595b1714f9d45,113.393246,23.131623,df2ac5fc-373b-492a-9281-4d348110b6a3,,False,,广州东风南方中大,,0,020-85553008,广州市天河区中山大道北侧棠东895号（骏景花园对面）,http://www.dongfeng-nissan.com.cn/DFLOffical/dealer/nissan/guangdong/guangzhou/gzzda,guangzhoudongshenzhongda@fengshenmotor.com,,,,http://www.chebaba.com/dealer_S2015012829704.htm,广东省,广州市
H2906,/Date(-62135596800000)/,,0,tencent://message/?Menu=yes&uin=2415504140&Site=ebuy.dongfeng-nissan.com.cn&Service=300&sigT=45a1e5847943b64c6ff3990f8a9e644d2b31356cb0b4ac6b24663a3c8dd0f8aa12a595b1714f9d45,113.315666,23.073467,2a8dcc7c-683b-4c45-8ff0-229605fa91b1,,False,,广州东风南方广大,,0,"020-84293975,020-84293976",广州市海珠区广州大道南1 88号(洛溪桥脚公交站）,http://www.dongfeng-nissan.com.cn/DFLOffical/dealer/nissan/guangdong/guangzhou/gzgda,guangzhoudongshenguangda@fengshenmoter.com,,,,http://www.chebaba.com/dealer_S2015072210201.htm,广东省,广州市
H2912,/Date(-62135596800000)/,,0,tencent://message/?Menu=yes&uin=398816399&Site=ebuy.dongfeng-nissan.com.cn&Service=300&sigT=45a1e5847943b64c6ff3990f8a9e644d2b31356cb0b4ac6b24663a3c8dd0f8aa12a595b1714f9d45,113.277714,23.162178,be804791-f512-48f5-af8c-fd8f91f070ca,,False,,广州广利,,0,020-86388988,广州市白云区下塘西路614号（雕塑公园正对面）,http://www.dongfeng-nissan.com.cn/DFLOffical/dealer/nissan/guangdong/guangzhou/gzgli,guangzhouguangli@fengshenmotor.com,,,,http://www.chebaba.com/dealer_S2015037182764.htm,广东省,广州市
H2948,/Date(-62135596800000)/,,0,tencent://message/?Menu=yes&uin=72553186&Site=ebuy.dongfeng-nissan.com.cn&Service=300&sigT=45a1e5847943b64c6ff3990f8a9e644d2b31356cb0b4ac6b24663a3c8dd0f8aa12a595b1714f9d45,113.530121,22.827085,85b5ab95-15a4-464e-a868-55ff913faa54,,False,,广州南沙大昌行喜龙,,0,020-34970666,广州市南沙区黄阁镇市南大道129号(地铁4号线黄阁站往东300米）,http://www.dongfeng-nissan.com.cn/DFLOffical/dealer/nissan/guangdong/guangzhou/gzdchxlong,,,,,http://www.chebaba.com/dealer_S2015072210698.htm,广东省,广州市
H2920,/Date(-62135596800000)/,,0,tencent://message/?Menu=yes&uin=374306570&Site=ebuy.dongfeng-nissan.com.cn&Service=300&sigT=45a1e5847943b64c6ff3990f8a9e644d2b31356cb0b4ac6b24663a3c8dd0f8aa12a595b1714f9d45,113.38803,23.196845,187fdf61-8b7a-4c6a-b36b-3c241c9a7fef,,False,,广州龙日,,0,020-87033666,广东省广州市天河区广汕一路500号中控楼（6）栋之一、二层,http://www.dongfeng-nissan.com.cn/DFLOffical/dealer/nissan/guangdong/guangzhou/gzlri,guangzhoulongri@fengshenmotor.com,,,,http://www.chebaba.com/dealer_S2015072210437.htm,广东省,广州市
H2960,/Date(-62135596800000)/,,0,tencent://message/?Menu=yes&uin=930182953&Site=ebuy.dongfeng-nissan.com.cn&Service=300&sigT=45a1e5847943b64c6ff3990f8a9e644d2b31356cb0b4ac6b24663a3c8dd0f8aa12a595b1714f9d45,113.29809,23.23111,32528ec9-0e0a-4621-8f4d-93620bdfc89d,,False,,广州南菱,,0,020-28272300,广州市白云区白云大道北1401号（白云堡立交北500米）,http://www.dongfeng-nissan.com.cn/DFLOffical/dealer/nissan/guangdong/guangzhou/gznling,494054165@qq.com,,,,http://www.chebaba.com/dealer_S2015072210777.htm,广东省,广州市
H2901,/Date(-62135596800000)/,,0,tencent://message/?Menu=yes&uin=156647956&Site=ebuy.dongfeng-nissan.com.cn&Service=300&sigT=45a1e5847943b64c6ff3990f8a9e644d2b31356cb0b4ac6b24663a3c8dd0f8aa12a595b1714f9d45,113.174699,23.385858,18146e17-8479-463e-860a-22af7ae525b5,,False,,广州风日,,0,020-86871222,广州市花都区新华镇西城开发区风神大道10号,http://www.dongfeng-nissan.com.cn/DFLOffical/dealer/nissan/guangdong/guangzhou/gzfri,guangzhoufengri@fengshenmotor.com,,,,http://www.chebaba.com/dealer_S2015072210212.htm,广东省,广州市
H2910,/Date(-62135596800000)/,,0,tencent://message/?Menu=yes&uin=1291573489&Site=ebuy.dongfeng-nissan.com.cn&Service=300&sigT=45a1e5847943b64c6ff3990f8a9e644d2b31356cb0b4ac6b24663a3c8dd0f8aa12a595b1714f9d45,113.374973,22.960158,ec0866ab-51f4-480f-ab30-871f2628e6fb,,True,,广州广裕,,0,020-39995038,广东省广州市番禺区市桥街东环路126号（交警大队斜对面）,http://www.dongfeng-nissan.com.cn/DFLOffical/dealer/nissan/guangdong/guangzhou/gzgyu,Guangzhouguangyu@fengshenmotor.com,,,,http://www.chebaba.com/dealer_S2015072210472.htm,广东省,广州市
H2904,/Date(-62135596800000)/,,0,tencent://message/?Menu=yes&uin=2794322063&Site=ebuy.dongfeng-nissan.com.cn&Service=300&sigT=45a1e5847943b64c6ff3990f8a9e644d2b31356cb0b4ac6b24663a3c8dd0f8aa12a595b1714f9d45,113.239388,23.075346,e23f3696-56c4-4b1a-914a-b0a5c0fa69c6,,False,,广州喜龙,,0,020-81510399,广州市荔湾区花地大道中268号,http://www.dongfeng-nissan.com.cn/DFLOffical/dealer/nissan/guangdong/guangzhou/gzxlong,guangzhouxilong@dfl.com.cn,,,,http://www.chebaba.com/dealer_S2015072210337.htm,广东省,广州市
H2908,/Date(-62135596800000)/,,0,tencent://message/?Menu=yes&uin=514323458&Site=ebuy.dongfeng-nissan.com.cn&Service=300&sigT=45a1e5847943b64c6ff3990f8a9e644d2b31356cb0b4ac6b24663a3c8dd0f8aa12a595b1714f9d45,113.594935,23.127718,a7a455f0-9956-4a74-b3be-d9a048cc6462,,False,,广州京安,,0,020-82882338,广东省广州市增城区新塘镇荔新公路上邵村路段,http://www.dongfeng-nissan.com.cn/DFLOffical/dealer/nissan/guangdong/guangzhou/gzjan,guangzhoujingan@fengshenmotor.com,,,,http://www.chebaba.com/dealer_S2015072210427.htm,广东省,广州市
H2921,/Date(-62135596800000)/,,0,tencent://message/?Menu=yes&uin=1470880823&Site=ebuy.dongfeng-nissan.com.cn&Service=300&sigT=45a1e5847943b64c6ff3990f8a9e644d2b31356cb0b4ac6b24663a3c8dd0f8aa12a595b1714f9d45,113.438609,23.107634,b850a53b-b14a-42d0-b12d-71749460baf9,,False,,广州东风南方黄埔,,0,020-66312345,广州市黄埔区中山大道东280-1号(地铁5号线-鱼珠站C出口即到),http://www.dongfeng-nissan.com.cn/DFLOffical/dealer/nissan/guangdong/guangzhou/gzhpu,guangzhoudongfengnanfanghuangpu-dmc@dfl.com.cn,,,,http://www.chebaba.com/dealer_S2015072210625.htm,广东省,广州市
H2913,/Date(-62135596800000)/,,0,tencent://message/?Menu=yes&uin=1724467057&Site=ebuy.dongfeng-nissan.com.cn&Service=300&sigT=45a1e5847943b64c6ff3990f8a9e644d2b31356cb0b4ac6b24663a3c8dd0f8aa12a595b1714f9d45,113.79665,23.286601,f27d7276-ebd1-45f8-ae35-de300d1a8790,,False,,广州耀骏,,0,020-22668888,广州市增城荔城三联村钟岗社磨谷地,http://www.dongfeng-nissan.com.cn/DFLOffical/dealer/nissan/guangdong/guangzhou/gzyjun,755237409@qq.com,,,,http://www.chebaba.com/dealer_S2015072210691.htm,广东省,广州市
H2905,/Date(-62135596800000)/,,0,tencent://message/?Menu=yes&uin=1487116188&Site=ebuy.dongfeng-nissan.com.cn&Service=300&sigT=45a1e5847943b64c6ff3990f8a9e644d2b31356cb0b4ac6b24663a3c8dd0f8aa12a595b1714f9d45,113.354567,23.003045,20e27d48-5aa8-480b-bed8-b6655abf62eb,,False,,广州金冠,,0,020-84567838,广州市番禺区钟村街钟一村钟屏岔道2号之二,http://www.dongfeng-nissan.com.cn/DFLOffical/dealer/nissan/guangdong/guangzhou/gzjguan,zhanghui@grandrich.net,,,,http://www.chebaba.com/dealer_S2015072210292.htm,广东省,广州市
H2903,/Date(-62135596800000)/,,0,tencent://message/?Menu=yes&uin=&Site=ebuy.dongfeng-nissan.com.cn&Service=300&sigT=45a1e5847943b64c6ff3990f8a9e644d2b31356cb0b4ac6b24663a3c8dd0f8aa12a595b1714f9d45,113.246699,23.192701,d0bc9e40-9bc2-4ecc-90a6-2d1407928dd5,,False,,广州华溢石槎,,0,020-86406628,白云区石槎路自编15号,http://www.dongfeng-nissan.com.cn/DFLOffical/dealer/nissan/guangdong/guangzhou/gzhyscha,guangzhouhuayi@163.net,,,,http://www.chebaba.com/dealer_S2015072210252.htm,广东省,广州市
H2989,/Date(-62135596800000)/,,0,tencent://message/?Menu=yes&uin=2067045234&Site=ebuy.dongfeng-nissan.com.cn&Service=300&sigT=45a1e5847943b64c6ff3990f8a9e644d2b31356cb0b4ac6b24663a3c8dd0f8aa12a595b1714f9d45,113.331815,23.041869,17fbd91e-631d-4bf4-85a6-3dfe3cc061c9,,False,,广州金冠明珠,,0,020-31178228,广东省广州市番禺区迎宾路111之1厦蚬ひ翟,http://www.dongfeng-nissan.com.cn/DFLOffical/dealer/nissan/guangdong/guangzhou/gzjgmzhu,guangzhoujinguanmingzhu@dfl.com.cn,,,,http://www.chebaba.com/dealer_S2015072201113.htm,广东省,广州市
H2949,/Date(-62135596800000)/,,0,tencent://message/?Menu=yes&uin=874483940&Site=ebuy.dongfeng-nissan.com.cn&Service=300&sigT=45a1e5847943b64c6ff3990f8a9e644d2b31356cb0b4ac6b24663a3c8dd0f8aa12a595b1714f9d45,113.615228,23.55383,d1b77321-fee2-42b9-b820-ad08b01d9145,,False,,广州华溢街口,,0,020-87989288,广州市从化河东北路口（105国道凤院村路口旁）,http://www.dongfeng-nissan.com.cn/DFLOffical/dealer/nissan/guangdong/guangzhou/gzhyjkou, huayijiekou@163.com ,,,,http://www.chebaba.com/dealer_S2015072210742.htm,广东省,广州市
G2937,/Date(-62135596800000)/,,0,tencent://message/?Menu=yes&uin=&Site=ebuy.dongfeng-nissan.com.cn&Service=300&sigT=45a1e5847943b64c6ff3990f8a9e644d2b31356cb0b4ac6b24663a3c8dd0f8aa12a595b1714f9d45,114.699184,23.709603,27968a9d-87e0-4d1a-9acb-501ed89da382,,False,,河源合利丰,,0,020-23323000,广东省河源市源城区迎客路与工业大道交叉口,http://www.dongfeng-nissan.com.cn/DFLOffical/dealer/nissan/guangdong/heyuan/heyuangelifeng,heyuanhelifeng@dfl.com.cn,,,,,广东省,河源市
G2929,/Date(-62135596800000)/,,0,tencent://message/?Menu=yes&uin=2108028675&Site=ebuy.dongfeng-nissan.com.cn&Service=300&sigT=45a1e5847943b64c6ff3990f8a9e644d2b31356cb0b4ac6b24663a3c8dd0f8aa12a595b1714f9d45,114.721653,23.702138,15b9ab6f-53a0-407d-a7ec-65c1e583fd54,,False,,河源九牧,,0,0762-7221111,广东省河源市东环路临江工业园超然汽车市场内,http://www.dongfeng-nissan.com.cn/DFLOffical/dealer/nissan/guangdong/heyuan/hyjmu,heyuanjiumu_sc@126.com,,,,http://www.chebaba.com/dealer_S2015072210721.htm,广东省,河源市
G2932,/Date(-62135596800000)/,,0,tencent://message/?Menu=yes&uin=1161404119&Site=ebuy.dongfeng-nissan.com.cn&Service=300&sigT=45a1e5847943b64c6ff3990f8a9e644d2b31356cb0b4ac6b24663a3c8dd0f8aa12a595b1714f9d45,114.433555,23.166364,9f471ab7-5c9b-4f5f-9026-38777ed06bb2,,False,,惠州俊通,,0,0752-2865888,广东省惠州市金龙大道江北51号小区（江北瑞钢钢构斜对面）,http://www.dongfeng-nissan.com.cn/DFLOffical/dealer/nissan/guangdong/huizhou/hzjtong,huizhoujuntong@dfl.com.cn,,,,http://www.chebaba.com/dealer_S2015072203549.htm,广东省,惠州市
G2933,/Date(-62135596800000)/,,0,tencent://message/?Menu=yes&uin=1793146910&Site=ebuy.dongfeng-nissan.com.cn&Service=300&sigT=45a1e5847943b64c6ff3990f8a9e644d2b31356cb0b4ac6b24663a3c8dd0f8aa12a595b1714f9d45,114.275133,23.187053,7babfa42-d36f-4445-b73e-0637c220a4b7,,False,,惠州天驿,,0,0752-6207988,惠州市博罗县罗阳镇广惠高速入口前1000米处,http://www.dongfeng-nissan.com.cn/DFLOffical/dealer/nissan/guangdong/huizhou/hztyi,huizhoutianyi@dfl.com.cn,,,,http://www.chebaba.com/dealer_S2015072210749.htm,广东省,惠州市
G2935,/Date(-62135596800000)/,,0,tencent://message/?Menu=yes&uin=268067706&Site=ebuy.dongfeng-nissan.com.cn&Service=300&sigT=45a1e5847943b64c6ff3990f8a9e644d2b31356cb0b4ac6b24663a3c8dd0f8aa12a595b1714f9d45,114.463449,22.982743,31700563-0746-4303-b2a1-291e71481e89,,False,,惠州南菱君达,,0,0752-7777706,惠州市惠城区三栋镇惠南汽车城惠州君达东风日产4S店,http://www.dongfeng-nissan.com.cn/DFLOffical/dealer/nissan/guangdong/huizhou/hznljda,nljd0752@163.com,,,,http://www.chebaba.com/dealer_S2015072210907.htm,广东省,惠州市
H2929,/Date(-62135596800000)/,,0,tencent://message/?Menu=yes&uin=32522883&Site=ebuy.dongfeng-nissan.com.cn&Service=300&sigT=45a1e5847943b64c6ff3990f8a9e644d2b31356cb0b4ac6b24663a3c8dd0f8aa12a595b1714f9d45,114.459187,23.088337,87480e04-c1e2-4b03-ad0f-06e54673aed7,,False,,惠州永惠,,0,0752-2318666,广东省惠州市水口镇大湖溪桥西南侧,http://www.dongfeng-nissan.com.cn/DFLOffical/dealer/nissan/guangdong/huizhou/hzyhui,huizhouyonghui@dfl.com.cn,,,,http://www.chebaba.com/dealer_S2015072210221.htm,广东省,惠州市
H2946,/Date(-62135596800000)/,,0,tencent://message/?Menu=yes&uin=879402188&Site=ebuy.dongfeng-nissan.com.cn&Service=300&sigT=45a1e5847943b64c6ff3990f8a9e644d2b31356cb0b4ac6b24663a3c8dd0f8aa12a595b1714f9d45,114.408307,23.064432,2cb18752-192d-4c9a-b61e-3377aa6efded,,False,,惠州天马,,0,0752-2285272,广东省惠州市三环路与口岸路交接处（实验中学旁）,http://www.dongfeng-nissan.com.cn/DFLOffical/dealer/nissan/guangdong/huizhou/hztma,huizhoutianma@fengshenmotor.com,,,,http://www.chebaba.com/dealer_S2015036970924.htm,广东省,惠州市
G2930,/Date(-62135596800000)/,,0,tencent://message/?Menu=yes&uin=357508510&Site=ebuy.dongfeng-nissan.com.cn&Service=300&sigT=45a1e5847943b64c6ff3990f8a9e644d2b31356cb0b4ac6b24663a3c8dd0f8aa12a595b1714f9d45,114.754133,22.974891,1bb4bd52-735a-4a52-96e9-de9c7b79e9a6,,False,,惠州中安,,0,0752-8311366,惠州市惠东县城银基大道粤惠汽车大市场（银基南门对面）,http://www.dongfeng-nissan.com.cn/DFLOffical/dealer/nissan/guangdong/huizhou/hzzan,huizhouzhongan@dfl.com.cn,,,,http://www.chebaba.com/dealer_S2015072210919.htm,广东省,惠州市
H2952,/Date(-62135596800000)/,,0,tencent://message/?Menu=yes&uin=448223109&Site=ebuy.dongfeng-nissan.com.cn&Service=300&sigT=45a1e5847943b64c6ff3990f8a9e644d2b31356cb0b4ac6b24663a3c8dd0f8aa12a595b1714f9d45,114.493071,22.761266,4a4ff39b-6821-4e4e-8a0f-34e2389da55f,,False,,惠州安捷,,0,0752-5182668,惠州市大亚湾西区上杨龙海二路32号,http://www.dongfeng-nissan.com.cn/DFLOffical/dealer/nissan/guangdong/huizhou/hzajie,huizhouanjie@DFL.com.cn,,,,http://www.chebaba.com/dealer_S2015072210261.htm,广东省,惠州市
H2965,/Date(-62135596800000)/,,0,tencent://message/?Menu=yes&uin=&Site=ebuy.dongfeng-nissan.com.cn&Service=300&sigT=45a1e5847943b64c6ff3990f8a9e644d2b31356cb0b4ac6b24663a3c8dd0f8aa12a595b1714f9d45,112.315716,22.210076,1ddebbfa-44b4-4f15-a845-9879909270b9,,False,,江门怡泰恩城,,0,0750-7116093,广东省江门恩平市恩城平石大岭洞 东风日产4S店,http://www.dongfeng-nissan.com.cn/DFLOffical/dealer/nissan/guangdong/jiangmen/jiangmenyitaiencheng,jiangmenyitaiencheng@dfl.com.cn,,,,,广东省,江门市
H2917,/Date(-62135596800000)/,,0,tencent://message/?Menu=yes&uin=&Site=ebuy.dongfeng-nissan.com.cn&Service=300&sigT=45a1e5847943b64c6ff3990f8a9e644d2b31356cb0b4ac6b24663a3c8dd0f8aa12a595b1714f9d45,113.069401,22.642707,8138c7d3-c473-4c0a-9295-9d808a18a908,,False,,江门江沙,,0,0750-3217788,江门市建设三路165号,http://www.dongfeng-nissan.com.cn/DFLOffical/dealer/nissan/guangdong/jiangmen/jmjsha,jiangmenjiangsha@dfl.com.cn,,,,http://www.chebaba.com/dealer_S2015072210489.htm,广东省,江门市
H2961,/Date(-62135596800000)/,,0,tencent://message/?Menu=yes&uin=704831023&Site=ebuy.dongfeng-nissan.com.cn&Service=300&sigT=45a1e5847943b64c6ff3990f8a9e644d2b31356cb0b4ac6b24663a3c8dd0f8aa12a595b1714f9d45,112.657481,22.370348,8b1879c2-b210-447a-8fe1-ec9dae2b5992,,False,,江门丰泰,,0,0750-2222789,开平市长沙街道办事处325国道八姓路段15号1座之一（海伦堡往恩平方向一公里右手边）,http://www.dongfeng-nissan.com.cn/DFLOffical/dealer/nissan/guangdong/jiangmen/jmftai,jmft-xs@lited.com,,,,http://www.chebaba.com/dealer_S2015036953784.htm,广东省,江门市
H2947,/Date(-62135596800000)/,,0,tencent://message/?Menu=yes&uin=351276205&Site=ebuy.dongfeng-nissan.com.cn&Service=300&sigT=45a1e5847943b64c6ff3990f8a9e644d2b31356cb0b4ac6b24663a3c8dd0f8aa12a595b1714f9d45,113.068393,22.541653,596f509f-7832-45c2-a697-4ff2d24aea28,,False,,江门利丰,,0,400-817-3349,广东省江门市新会区冈州大道东37号,http://www.dongfeng-nissan.com.cn/DFLOffical/dealer/nissan/guangdong/jiangmen/jmlfeng,jiangmenlifeng@fengshenmotor.com,,,,http://www.chebaba.com/dealer_S2015072210490.htm,广东省,江门市
H2978,/Date(-62135596800000)/,,0,tencent://message/?Menu=yes&uin=351276205&Site=ebuy.dongfeng-nissan.com.cn&Service=300&sigT=45a1e5847943b64c6ff3990f8a9e644d2b31356cb0b4ac6b24663a3c8dd0f8aa12a595b1714f9d45,112.81154,22.308596,9f862924-0e38-4b3f-9f4c-6d4c0b69155d,,False,,江门昌泰台山,,0,0750-5555568,台山市台城镇陈宜禧路北190号（即富华重工斜对面）,http://www.dongfeng-nissan.com.cn/DFLOffical/dealer/nissan/guangdong/jiangmen/jmcttshan,jmlt-sh@lited.com,,,,http://www.chebaba.com/dealer_S2015072201131.htm,广东省,江门市
H2931,/Date(-62135596800000)/,,0,tencent://message/?Menu=yes&uin=1440459793&Site=ebuy.dongfeng-nissan.com.cn&Service=300&sigT=45a1e5847943b64c6ff3990f8a9e644d2b31356cb0b4ac6b24663a3c8dd0f8aa12a595b1714f9d45,116.376593,23.571949,6114fbec-4d6d-4efd-b514-881b0ef95885,,False,,揭阳恒宇,,0,0663-8296888,揭阳市环市北路与黄岐山大道交界处（东成渔村东侧）,http://www.dongfeng-nissan.com.cn/DFLOffical/dealer/nissan/guangdong/jieyang/jyhyu,jieyanghengyu@fengshenmotor.com,,,,http://www.chebaba.com/dealer_S2015072210276.htm,广东省,揭阳市
G2928,/Date(-62135596800000)/,,0,tencent://message/?Menu=yes&uin=570389072&Site=ebuy.dongfeng-nissan.com.cn&Service=300&sigT=45a1e5847943b64c6ff3990f8a9e644d2b31356cb0b4ac6b24663a3c8dd0f8aa12a595b1714f9d45,116.159132,23.326421,9335774a-f3dc-4bcf-aece-0e70fca7fb5b,,False,,揭阳恒悦,,0,0663-2698888,广东省普宁市池揭公路乌石路段东侧东风日产恒悦专营店,http://www.dongfeng-nissan.com.cn/DFLOffical/dealer/nissan/guangdong/jieyang/jyhyue,jieyanghengyue-dmc@dfl.com.cn,,,,http://www.chebaba.com/dealer_S2015072210706.htm,广东省,揭阳市
H2930,/Date(-62135596800000)/,,0,tencent://message/?Menu=yes&uin=2283821290&Site=ebuy.dongfeng-nissan.com.cn&Service=300&sigT=45a1e5847943b64c6ff3990f8a9e644d2b31356cb0b4ac6b24663a3c8dd0f8aa12a595b1714f9d45,110.95372,21.673813,a71f2716-6106-4e12-81e3-d7bc762dc276,,False,,茂名金泰,,0,0668-2733999,茂名市油城九路沙田小区北侧100米,http://www.dongfeng-nissan.com.cn/DFLOffical/dealer/nissan/guangdong/maoming/mmjtai,maomingjintai@fengshenmotor.com,,,,http://www.chebaba.com/dealer_S2015037046983.htm,广东省,茂名市
H2970,/Date(-62135596800000)/,,0,tencent://message/?Menu=yes&uin=1664216312&Site=ebuy.dongfeng-nissan.com.cn&Service=300&sigT=45a1e5847943b64c6ff3990f8a9e644d2b31356cb0b4ac6b24663a3c8dd0f8aa12a595b1714f9d45,110.913559,21.635139,955d972a-5467-43ca-9ca2-95e3bdcee4fc,,False,,茂名广利成,,0,0668-3937888,茂名市茂南区环市西路（大岭仔红绿灯往碧桂园方向300米）,http://www.dongfeng-nissan.com.cn/DFLOffical/dealer/nissan/guangdong/maoming/mmglcheng,maomingguanglicheng@dfl.com.cn,,,,http://www.chebaba.com/dealer_S2015072210784.htm,广东省,茂名市
H2993,/Date(-62135596800000)/,,0,tencent://message/?Menu=yes&uin=&Site=ebuy.dongfeng-nissan.com.cn&Service=300&sigT=45a1e5847943b64c6ff3990f8a9e644d2b31356cb0b4ac6b24663a3c8dd0f8aa12a595b1714f9d45,110.841584,21.892516,4b79cec2-8a3f-43f9-82a7-f145a5f3cb22,,False,,茂名铭泰高州,,0,0668-6621333,广东省高州市高州大道石仔岭大转盘东侧,http://www.dongfeng-nissan.com.cn/DFLOffical/dealer/nissan/guangdong/maoming/mmmtgzhou,maomingmingtaigaozhou@dfl.com.cn,,,,http://www.chebaba.com/dealer_S2015072201307.htm,广东省,茂名市
H2982,/Date(-62135596800000)/,,0,tencent://message/?Menu=yes&uin=2936691603&Site=ebuy.dongfeng-nissan.com.cn&Service=300&sigT=45a1e5847943b64c6ff3990f8a9e644d2b31356cb0b4ac6b24663a3c8dd0f8aa12a595b1714f9d45,116.118257,24.266914,0068b59f-8293-4445-9205-30881df2880b,,False,,梅州春天梅江,,0,0753-2305888,梅州市梅江区三角镇206国道西（梅县机场右侧330米）,http://www.dongfeng-nissan.com.cn/DFLOffical/dealer/nissan/guangdong/meizhou/mzctmjiang,meizhouguanglimeijiang-dmc@dfl.com.cn,,,,http://www.chebaba.com/dealer_S2015072201163.htm,广东省,梅州市
H2942,/Date(-62135596800000)/,,0,tencent://message/?Menu=yes&uin=1446822081&Site=ebuy.dongfeng-nissan.com.cn&Service=300&sigT=45a1e5847943b64c6ff3990f8a9e644d2b31356cb0b4ac6b24663a3c8dd0f8aa12a595b1714f9d45,116.10411,24.332025,05ca517c-d511-4af8-9bfd-4dc51dd196bb,,False,,梅州春天,,0,400-100-0357,广东省梅州市环市西路（平远路口）,http://www.dongfeng-nissan.com.cn/DFLOffical/dealer/nissan/guangdong/meizhou/mzctian,meizhouchuntian@fengshenmotor.com,,,,http://www.chebaba.com/dealer_S2015036917563.htm,广东省,梅州市
H2991,/Date(-62135596800000)/,,0,tencent://message/?Menu=yes&uin=&Site=ebuy.dongfeng-nissan.com.cn&Service=300&sigT=45a1e5847943b64c6ff3990f8a9e644d2b31356cb0b4ac6b24663a3c8dd0f8aa12a595b1714f9d45,115.703003,24.133885,6abf4471-8d25-415e-b7f4-5294bfd03bed,,False,,梅州春天兴宁,,0,0753-3211888,兴宁市人民大道西兴田街道办一联村巫公岭,http://www.dongfeng-nissan.com.cn/DFLOffical/dealer/nissan/guangdong/meizhou/mzctxning,meizhouchuntianxingning@dfl.com.cn,,,,http://www.chebaba.com/dealer_S2015072201304.htm,广东省,梅州市
H2950,/Date(-62135596800000)/,,0,tencent://message/?Menu=yes&uin=2922114072&Site=ebuy.dongfeng-nissan.com.cn&Service=300&sigT=45a1e5847943b64c6ff3990f8a9e644d2b31356cb0b4ac6b24663a3c8dd0f8aa12a595b1714f9d45,113.061369,23.667787,7ce53982-2689-44f6-8643-d031b1654b6e,,False,,清远金江,,0,0763-3864519,广东省清远市新城B28号区12号,http://www.dongfeng-nissan.com.cn/DFLOffical/dealer/nissan/guangdong/qingyuan/qyjjiang,Qingyuanjinjiang@fengshenmotor.com,,,,http://www.chebaba.com/dealer_S2015036994127.htm,广东省,清远市
H2985,/Date(-62135596800000)/,,0,tencent://message/?Menu=yes&uin=&Site=ebuy.dongfeng-nissan.com.cn&Service=300&sigT=45a1e5847943b64c6ff3990f8a9e644d2b31356cb0b4ac6b24663a3c8dd0f8aa12a595b1714f9d45,113.422947,24.228818,a3460fae-7098-4850-88c6-c11655cd3300,,False,,清远银山英德,,0,0763-31172221,清远英德市天佑北路（观音山大道）,http://www.dongfeng-nissan.com.cn/DFLOffical/dealer/nissan/guangdong/qingyuan/qyysyde,qingyuanyinshanyingde@dfl.com.cn,,,,http://www.chebaba.com/dealer_S2015072201114.htm,广东省,清远市
H2969,/Date(-62135596800000)/,,0,tencent://message/?Menu=yes&uin=446493603&Site=ebuy.dongfeng-nissan.com.cn&Service=300&sigT=45a1e5847943b64c6ff3990f8a9e644d2b31356cb0b4ac6b24663a3c8dd0f8aa12a595b1714f9d45,116.4918,23.257071,90a54be0-e40f-44ef-abeb-98ede3f8e118,,False,,汕头中升恒利,,0,0754-89931808,汕头市潮阳区和平中寨188号广汕公路324国道旁（蕾琪化妆品隔壁）,http://www.dongfeng-nissan.com.cn/DFLOffical/dealer/nissan/guangdong/shantou/stzshli,shantouzhongshenghengli@dfl.com.cn,,,,http://www.chebaba.com/dealer_S2015072210781.htm,广东省,汕头市
H2911,/Date(-62135596800000)/,,0,tencent://message/?Menu=yes&uin=&Site=ebuy.dongfeng-nissan.com.cn&Service=300&sigT=45a1e5847943b64c6ff3990f8a9e644d2b31356cb0b4ac6b24663a3c8dd0f8aa12a595b1714f9d45,116.752053,23.353818,cfdd0f5f-da98-46cc-a0e0-3b5bb4ec7807,,False,,汕头中升恒达,,0,0754-88991189,广东省汕头市龙湖区泰山路中段14A,http://www.dongfeng-nissan.com.cn/DFLOffical/dealer/nissan/guangdong/shantou/sthda,shantouhengda@fengshenmotor.com,,,,http://www.chebaba.com/dealer_S2015072210399.htm,广东省,汕头市
G2931,/Date(-62135596800000)/,,0,tencent://message/?Menu=yes&uin=2205174789&Site=ebuy.dongfeng-nissan.com.cn&Service=300&sigT=45a1e5847943b64c6ff3990f8a9e644d2b31356cb0b4ac6b24663a3c8dd0f8aa12a595b1714f9d45,115.39526,22.804766,66f42682-e849-46f7-9b4d-cb6001ae80e8,,False,,汕尾中升恒通,,0,0660-3813666,汕尾市区海汕公路赤岭段东侧东风日产中升恒通专营店（市区交警大队隔壁）,http://www.dongfeng-nissan.com.cn/DFLOffical/dealer/nissan/guangdong/shanwei/swhtong,shanweizhongshenghengtong@dfl.com.cn,,,,http://www.chebaba.com/dealer_S2015072210487.htm,广东省,汕尾市
H2943,/Date(-62135596800000)/,,0,tencent://message/?Menu=yes&uin=2248628245&Site=ebuy.dongfeng-nissan.com.cn&Service=300&sigT=45a1e5847943b64c6ff3990f8a9e644d2b31356cb0b4ac6b24663a3c8dd0f8aa12a595b1714f9d45,113.592726,24.766789,4817b1dc-f124-4141-9af3-c27ab339b17d,,False,,韶关通九州,,0,0751-8261333,韶关市浈江区韶南大道北83号（南郊四公里）通九州大厦,http://www.dongfeng-nissan.com.cn/DFLOffical/dealer/nissan/guangdong/shaoguan/sgtjzhou,shaoguantongjiuzhou@fengshenmotor.com,,,,http://www.chebaba.com/dealer_S2015036976092.htm,广东省,韶关市
H2987,/Date(-62135596800000)/,,0,tencent://message/?Menu=yes&uin=&Site=ebuy.dongfeng-nissan.com.cn&Service=300&sigT=45a1e5847943b64c6ff3990f8a9e644d2b31356cb0b4ac6b24663a3c8dd0f8aa12a595b1714f9d45,113.587072,24.7422,ae11e790-25b1-439b-b11c-dadbd2d59fcd,,False,,韶关通九州韶冶,,0,0751-8227818,广东省韶关市浈江区韶南大道南壹拾贰号之壹,http://www.dongfeng-nissan.com.cn/DFLOffical/dealer/nissan/guangdong/shaoguan/shaoguantongjiuzhoushaoye,shaoguantongjiuzhoushaoye@dfl.com.cn,,,,,广东省,韶关市
G2920,/Date(-62135596800000)/,,0,tencent://message/?Menu=yes&uin=270385167&Site=ebuy.dongfeng-nissan.com.cn&Service=300&sigT=45a1e5847943b64c6ff3990f8a9e644d2b31356cb0b4ac6b24663a3c8dd0f8aa12a595b1714f9d45,113.899749,22.586917,3bcadb70-8945-427b-ad40-61f470470126,,False,,深圳东风南方华新,,0,0755-27473022,深圳市宝安区前进一路与新安四路交汇处，天虹沃尔玛旁,http://www.dongfeng-nissan.com.cn/DFLOffical/dealer/nissan/guangdong/shenzhen/szhxin,shenzhendongfengnanfanghuaxin@dfl.com.cn,,,,http://www.chebaba.com/dealer_S15012015402606597.htm,广东省,深圳市
G2922,/Date(-62135596800000)/,,0,tencent://message/?Menu=yes&uin=0&Site=ebuy.dongfeng-nissan.com.cn&Service=300&sigT=45a1e5847943b64c6ff3990f8a9e644d2b31356cb0b4ac6b24663a3c8dd0f8aa12a595b1714f9d45,114.035512,22.564558,04594d66-d178-4772-b39c-097e6260b641,,False,,深圳裕朋,,0,"0755-88316602,",深圳市福田区北环大道7028号,http://www.dongfeng-nissan.com.cn/DFLOffical/dealer/nissan/guangdong/shenzhen/szypeng,shenzhenyupeng@fengshenmotor.com                                   ,,,,http://www.chebaba.com/dealer_S2015072210496.htm,广东省,深圳市
H2980,/Date(-62135596800000)/,,0,tencent://message/?Menu=yes&uin=2553148795&Site=ebuy.dongfeng-nissan.com.cn&Service=300&sigT=45a1e5847943b64c6ff3990f8a9e644d2b31356cb0b4ac6b24663a3c8dd0f8aa12a595b1714f9d45,113.819709,22.680751,a2f9fa49-14a2-48e5-9599-cd783b9ec4b6,,False,,深圳东风南方华昌,,0,0755-23158889，0755-23156889,深圳市宝安区福永立新路与福洲大道交汇处花园酒店旁（福永中学北行300米）,http://www.dongfeng-nissan.com.cn/DFLOffical/dealer/nissan/guangdong/shenzhen/nfhchang,shenzhendongfengnanfanghuachang@dfl.com.cn,,,,http://www.chebaba.com/dealer_S2015072201036.htm,广东省,深圳市
H2988,/Date(-62135596800000)/,,0,tencent://message/?Menu=yes&uin=343873609&Site=ebuy.dongfeng-nissan.com.cn&Service=300&sigT=45a1e5847943b64c6ff3990f8a9e644d2b31356cb0b4ac6b24663a3c8dd0f8aa12a595b1714f9d45,114.086195,22.715193,204d849d-5578-4c6b-9a22-6cc29a3fc6c1,,False,,深圳东风南方观澜华盛,,0,0755-28030666,深圳市龙华新区观澜福兴围社区观平路182号（福兴围幼儿园旁边）,http://www.dongfeng-nissan.com.cn/DFLOffical/dealer/nissan/guangdong/shenzhen/szglhsheng,343873609@qq.com,,,,http://www.chebaba.com/dealer_S2015072210935.htm,广东省,深圳市
G2925,/Date(-62135596800000)/,,0,tencent://message/?Menu=yes&uin=1831050276&Site=ebuy.dongfeng-nissan.com.cn&Service=300&sigT=45a1e5847943b64c6ff3990f8a9e644d2b31356cb0b4ac6b24663a3c8dd0f8aa12a595b1714f9d45,113.807123,22.739019,6e9c77ba-1a98-4a72-b365-fc6c1306006e,,False,,深圳新大兴,,0,0755-27283502,深圳市宝安区沙井西环路2111号,http://www.dongfeng-nissan.com.cn/DFLOffical/dealer/nissan/guangdong/shenzhen/szxdxing,shenzhenxindaxing-dmc@dfl.com.cn,,,,http://www.chebaba.com/dealer_S2015072210548.htm,广东省,深圳市
G2927,/Date(-62135596800000)/,,0,tencent://message/?Menu=yes&uin=911437536&Site=ebuy.dongfeng-nissan.com.cn&Service=300&sigT=45a1e5847943b64c6ff3990f8a9e644d2b31356cb0b4ac6b24663a3c8dd0f8aa12a595b1714f9d45,114.017624,22.655139,b56d2799-1267-4e5d-ab67-a576f94b1679,,False,,深圳东风南方华龙,,0,0755-27706789,深圳市龙华新区布龙路龙胜新村B区281号（地铁4号线龙胜站B出口胜龙加油站旁）,http://www.dongfeng-nissan.com.cn/DFLOffical/dealer/nissan/guangdong/shenzhen/szhlong,shenzhendongfengnanfanghualong@dfl.com.cn,,,,http://www.chebaba.com/dealer_S2015072210544.htm,广东省,深圳市
G2912,/Date(-62135596800000)/,,0,tencent://message/?Menu=yes&uin=411307689&Site=ebuy.dongfeng-nissan.com.cn&Service=300&sigT=45a1e5847943b64c6ff3990f8a9e644d2b31356cb0b4ac6b24663a3c8dd0f8aa12a595b1714f9d45,114.146171,22.549005,2fcfaffd-8d91-4f93-a564-678eb1d9db41,,False,,深圳东风南方华鹏,,0,0755-82378225,深圳市罗湖区延芳路东益汽车交易广场二期D1区,http://www.dongfeng-nissan.com.cn/DFLOffical/dealer/nissan/guangdong/shenzhen/szhpeng,shenzhenfengshenhuapeng@fengshenmotor.com,,,,http://www.chebaba.com/dealer_S2015072210534.htm,广东省,深圳市
G2923,/Date(-62135596800000)/,,0,tencent://message/?Menu=yes&uin=2859541970&Site=ebuy.dongfeng-nissan.com.cn&Service=300&sigT=45a1e5847943b64c6ff3990f8a9e644d2b31356cb0b4ac6b24663a3c8dd0f8aa12a595b1714f9d45,113.942216,22.532582,677d6566-fd03-43d9-a727-c0f9971a9117,,False,,深圳东风南方华旭,,0,0755-26720506,深圳市南山区白石路桂庙新村118号（深圳大学南门出口200米处）,http://www.dongfeng-nissan.com.cn/DFLOffical/dealer/nissan/guangdong/shenzhen/szhxu,shenzhenfengshenhuaxu@fengshenmotor.com,,,,http://www.chebaba.com/dealer_S2015072210541.htm,广东省,深圳市
G2921,/Date(-62135596800000)/,,0,tencent://message/?Menu=yes&uin=1412322841&Site=ebuy.dongfeng-nissan.com.cn&Service=300&sigT=45a1e5847943b64c6ff3990f8a9e644d2b31356cb0b4ac6b24663a3c8dd0f8aa12a595b1714f9d45,114.231618,22.708842,4752783d-8189-45f9-9096-74652f302c4e,,False,,深圳东风南方华翔,,0,0755-89628111,深圳市龙岗中心城如意路与沙园路交叉段（龙城街道办旁）,http://www.dongfeng-nissan.com.cn/DFLOffical/dealer/nissan/guangdong/shenzhen/szhxiang,shenzhenfengshenhuaxiang@fengshenmotor.com,,,,http://www.chebaba.com/dealer_S2015072210537.htm,广东省,深圳市
H2986,/Date(-62135596800000)/,,0,tencent://message/?Menu=yes&uin=1148076402&Site=ebuy.dongfeng-nissan.com.cn&Service=300&sigT=45a1e5847943b64c6ff3990f8a9e644d2b31356cb0b4ac6b24663a3c8dd0f8aa12a595b1714f9d45,114.231569,22.673198,d0453ae9-2a51-4759-bc44-7f2391bcfef9,,False,,深圳东风南方华景,,0,0755-89762999,深圳市龙岗区横岗街道银盛路33号20号展位,http://www.dongfeng-nissan.com.cn/DFLOffical/dealer/nissan/guangdong/shenzhen/szhjing,dfnissanhjxsbdxz@163.com,,,,http://www.chebaba.com/dealer_S2015072201025.htm,广东省,深圳市
G2926,/Date(-62135596800000)/,,0,tencent://message/?Menu=yes&uin=2082025045&Site=ebuy.dongfeng-nissan.com.cn&Service=300&sigT=45a1e5847943b64c6ff3990f8a9e644d2b31356cb0b4ac6b24663a3c8dd0f8aa12a595b1714f9d45,114.037728,22.547094,eb5a0c5f-16b8-4094-ac77-18576ea08c5a,,False,,深圳东风南方华瑞,,0,0755-83888866,深圳市福田区深南大道6068号联合华鹏汽车交易广场C1-2(香蜜湖度假村旁边),http://www.dongfeng-nissan.com.cn/DFLOffical/dealer/nissan/guangdong/shenzhen/szhrui,shenzhenfengshenhuarui@fengshenmotor.com,,,,http://www.chebaba.com/dealer_S2015072210542.htm,广东省,深圳市
H2971,/Date(-62135596800000)/,,0,tencent://message/?Menu=yes&uin=2839793148&Site=ebuy.dongfeng-nissan.com.cn&Service=300&sigT=45a1e5847943b64c6ff3990f8a9e644d2b31356cb0b4ac6b24663a3c8dd0f8aa12a595b1714f9d45,111.946853,21.86648,65f2ad11-9c1f-4ba1-a7f0-33f2d16a792d,,False,,阳江广宝丰,,0,0662-3118888,阳江市漠江中路北侧（独洲大道路口）,http://www.dongfeng-nissan.com.cn/DFLOffical/dealer/nissan/guangdong/yangjiang/yjgbfeng,yangjiangguangbaofeng@dfl.com.cn,,,,http://www.chebaba.com/dealer_S2015072210786.htm,广东省,阳江市
H2937,/Date(-62135596800000)/,,0,tencent://message/?Menu=yes&uin=384554942&Site=ebuy.dongfeng-nissan.com.cn&Service=300&sigT=45a1e5847943b64c6ff3990f8a9e644d2b31356cb0b4ac6b24663a3c8dd0f8aa12a595b1714f9d45,112.006983,21.877942,c67d03ec-cae7-4c51-892a-e64e2b127f3e,,False,,阳江金山,,0,0662-3303900,阳江市东风三路163号,http://www.dongfeng-nissan.com.cn/DFLOffical/dealer/nissan/guangdong/yangjiang/yjjshan,yangjiangjinshan@dfl.com.cn,,,,http://www.chebaba.com/dealer_S2015072210317.htm,广东省,阳江市
H2997,/Date(-62135596800000)/,,0,tencent://message/?Menu=yes&uin=&Site=ebuy.dongfeng-nissan.com.cn&Service=300&sigT=45a1e5847943b64c6ff3990f8a9e644d2b31356cb0b4ac6b24663a3c8dd0f8aa12a595b1714f9d45,111.788588,22.181922,aa5ed954-4652-45a0-824e-9fa09d51fe5f,,False,,阳江阳春溢美,,0,0662-7653866,广东省阳春市春城迎宾大道二桥头北侧中保大楼首层,http://www.dongfeng-nissan.com.cn/DFLOffical/dealer/nissan/guangdong/yangjiang/yjycymei,"<link url=""yangjiangyangchunyimei@dfl.com.cn"" linktype=""internal"" id="""" />",,,,http://www.chebaba.com/dealer_S2016010637630.htm,广东省,阳江市
H2998,/Date(-62135596800000)/,,0,tencent://message/?Menu=yes&uin=&Site=ebuy.dongfeng-nissan.com.cn&Service=300&sigT=45a1e5847943b64c6ff3990f8a9e644d2b31356cb0b4ac6b24663a3c8dd0f8aa12a595b1714f9d45,111.621228,22.73351,a3b90fd4-a74e-4e0e-902e-18af50a22a3a,,False,,云浮罗定怡诚,,0,0766-3893088,罗定市素龙街道田边村（陈其超屋）,http://www.dongfeng-nissan.com.cn/DFLOffical/dealer/nissan/guangdong/yunfu/yfldycheng,yunfuguangli@dfl.com.cn,,,,http://www.chebaba.com/dealer_S2015072210642.htm,广东省,云浮市
H2957,/Date(-62135596800000)/,,0,tencent://message/?Menu=yes&uin=574708019&Site=ebuy.dongfeng-nissan.com.cn&Service=300&sigT=45a1e5847943b64c6ff3990f8a9e644d2b31356cb0b4ac6b24663a3c8dd0f8aa12a595b1714f9d45,112.039349,22.953885,a1f3fa66-d0f1-49ba-8fbe-6f0d7730720d,,False,,云浮怡诚,,0,0766-8337788,广东省云浮市城北过境公路高峰段自编3号,http://www.dongfeng-nissan.com.cn/DFLOffical/dealer/nissan/guangdong/yunfu/yfycheng,yunfuyicheng@dfl.com.cn,,,,http://www.chebaba.com/dealer_S2015072210642.htm,广东省,云浮市
H2977,/Date(-62135596800000)/,,0,tencent://message/?Menu=yes&uin=2281597381&Site=ebuy.dongfeng-nissan.com.cn&Service=300&sigT=45a1e5847943b64c6ff3990f8a9e644d2b31356cb0b4ac6b24663a3c8dd0f8aa12a595b1714f9d45,110.377675,21.25517,31cc3759-a1b5-46cd-9296-b5e0d75e643a,,False,,湛江东升行,,0,0759-3395888,湛江赤坎区椹川大道北65号。（北站路口、乘坐公交1、13、15线到尖嘴岭村站下车，前行50米即到）,http://www.dongfeng-nissan.com.cn/DFLOffical/dealer/nissan/guangdong/zhanjiang/zjdshang,zjdongshenghang@sina.com,,,,http://www.chebaba.com/dealer_S2015072201038.htm,广东省,湛江市
H2923,/Date(-62135596800000)/,,0,tencent://message/?Menu=yes&uin=120392479&Site=ebuy.dongfeng-nissan.com.cn&Service=300&sigT=45a1e5847943b64c6ff3990f8a9e644d2b31356cb0b4ac6b24663a3c8dd0f8aa12a595b1714f9d45,110.385524,21.284264,d95d5208-986a-4d01-8101-62fde652c55f,,False,,湛江骏浩,,0,0759-3207188,湛江市赤坎区海田路73号,http://www.dongfeng-nissan.com.cn/DFLOffical/dealer/nissan/guangdong/zhanjiang/zjjhao,zhanjiangjunhao@fengshenmotor.com,,,,http://www.chebaba.com/dealer_S2015036991465.htm,广东省,湛江市
H2973,/Date(-62135596800000)/,,0,tencent://message/?Menu=yes&uin=2779395579&Site=ebuy.dongfeng-nissan.com.cn&Service=300&sigT=45a1e5847943b64c6ff3990f8a9e644d2b31356cb0b4ac6b24663a3c8dd0f8aa12a595b1714f9d45,112.740511,23.320124,37356303-68db-4b45-96f5-6f72d1acd611,,False,,肇庆合利恒四会,,0,0758-3231988,广东省肇庆四会市四会大道南16号之二（广汇家私旁）,http://www.dongfeng-nissan.com.cn/DFLOffical/dealer/nissan/guangdong/zhaoqing/zqhlhshui,zhaoqinghelihengsihui@dfl.com.cn,,,,http://www.chebaba.com/dealer_S2015072201097.htm,广东省,肇庆市
H2932,/Date(-62135596800000)/,,0,tencent://message/?Menu=yes&uin=2387548721&Site=ebuy.dongfeng-nissan.com.cn&Service=300&sigT=45a1e5847943b64c6ff3990f8a9e644d2b31356cb0b4ac6b24663a3c8dd0f8aa12a595b1714f9d45,112.504967,23.108141,823ad4f6-9e6b-485d-911b-c64b700a9c8c,,False,,肇庆合利,,0,0758-2751288,广东省肇庆市过境公路肇庆学院牌坊东侧,http://www.dongfeng-nissan.com.cn/DFLOffical/dealer/nissan/guangdong/zhaoqing/zqhli,zhaoqingheli@fengshenmotor.com,,,,http://www.chebaba.com/dealer_S2015072210362.htm,广东省,肇庆市
H2999,/Date(-62135596800000)/,,0,tencent://message/?Menu=yes&uin=&Site=ebuy.dongfeng-nissan.com.cn&Service=300&sigT=45a1e5847943b64c6ff3990f8a9e644d2b31356cb0b4ac6b24663a3c8dd0f8aa12a595b1714f9d45,113.41653,22.558734,b75cb975-9594-4630-bd37-4de97d2ce7e5,,False,,中山名城,,0,0760-28170388,广东省中山市东区长江北路361号,http://www.dongfeng-nissan.com.cn/DFLOffical/dealer/nissan/guangdong/zhongshan/zhongshanmingcheng,zhongshanmingcheng@dfl.com.cn,,,,http://www.chebaba.com/dealer_detail-3538-1.html,广东省,中山市
H2962,/Date(-62135596800000)/,,0,tencent://message/?Menu=yes&uin=2567064076&Site=ebuy.dongfeng-nissan.com.cn&Service=300&sigT=45a1e5847943b64c6ff3990f8a9e644d2b31356cb0b4ac6b24663a3c8dd0f8aa12a595b1714f9d45,113.33587,22.46523,a24bb652-1516-4d27-8b20-268b0bfd251a,,False,,中山创日,,0,0760-88553008,中山市南区城南四路33号,http://www.dongfeng-nissan.com.cn/DFLOffical/dealer/nissan/guangdong/zhongshan/zscri,zscryx@qq.com,,,,http://www.chebaba.com/dealer_S2015072210966.htm,广东省,中山市
H2928,/Date(-62135596800000)/,,0,tencent://message/?Menu=yes&uin=2455529033&Site=ebuy.dongfeng-nissan.com.cn&Service=300&sigT=45a1e5847943b64c6ff3990f8a9e644d2b31356cb0b4ac6b24663a3c8dd0f8aa12a595b1714f9d45,113.347333,22.576581,a4e32bba-3c3f-41ad-b983-ffa46d4a6d58,,False,,中山东日,,0,0760-88555888,中山市西区沙港西路7号（沙朗BP加油站旁）,http://www.dongfeng-nissan.com.cn/DFLOffical/dealer/nissan/guangdong/zhongshan/zsdri,zhongshanjide@fengshenmotor.com,,,,http://www.chebaba.com/dealer_S2015072210463.htm,广东省,中山市
H2922,/Date(-62135596800000)/,,0,tencent://message/?Menu=yes&uin=1064916390&Site=ebuy.dongfeng-nissan.com.cn&Service=300&sigT=45a1e5847943b64c6ff3990f8a9e644d2b31356cb0b4ac6b24663a3c8dd0f8aa12a595b1714f9d45,113.459678,22.537213,6651d469-0b40-4073-aac3-ef7249bc6e97,,False,,中山众杰,,0,0760-85337999,广东省中山市火炬开发区江陵大道西13号汽车贸易城,http://www.dongfeng-nissan.com.cn/DFLOffical/dealer/nissan/guangdong/zhongshan/zszjie,zhongshanzhongjie@dfl.com.cn,,,,http://www.chebaba.com/dealer_S2015072210508.htm,广东省,中山市
H2945,/Date(-62135596800000)/,,0,tencent://message/?Menu=yes&uin=2534580585&Site=ebuy.dongfeng-nissan.com.cn&Service=300&sigT=45a1e5847943b64c6ff3990f8a9e644d2b31356cb0b4ac6b24663a3c8dd0f8aa12a595b1714f9d45,113.231727,22.651462,5ca0c892-b579-4783-87fa-330b67e9df50,,False,,中山创世纪,,0,0760-22277399,中山市小榄镇永宁菊城大道西,http://www.dongfeng-nissan.com.cn/DFLOffical/dealer/nissan/guangdong/zhongshan/zscsji,zhongshanchuangshiji@fengshenmotor.com,,,,http://www.chebaba.com/dealer_S2015072210316.htm,广东省,中山市
H2976,/Date(-62135596800000)/,,0,tencent://message/?Menu=yes&uin=&Site=ebuy.dongfeng-nissan.com.cn&Service=300&sigT=45a1e5847943b64c6ff3990f8a9e644d2b31356cb0b4ac6b24663a3c8dd0f8aa12a595b1714f9d45,113.488919,22.635335,bac64af0-6425-4ce5-ba48-d9f081ec5fd3,,False,,中山创诚,,0,0760-89930081,中山市民众镇番中公路民众大道北路口,http://www.dongfeng-nissan.com.cn/DFLOffical/dealer/nissan/guangdong/zhongshan/zsccheng,zhongshanchuangcheng@dfl.com.cn,,,,http://www.chebaba.com/dealer_S2015072201183.htm,广东省,中山市
H2968,/Date(-62135596800000)/,,0,tencent://message/?Menu=yes&uin=520001630&Site=ebuy.dongfeng-nissan.com.cn&Service=300&sigT=45a1e5847943b64c6ff3990f8a9e644d2b31356cb0b4ac6b24663a3c8dd0f8aa12a595b1714f9d45,113.332775,22.222244,7202ddb9-0ff9-4ca9-968a-bd15f5217655,,False,,珠海黄浦,,0,0756-5517688,珠海市斗门区白蕉大道37号（西部车城内）,http://www.dongfeng-nissan.com.cn/DFLOffical/dealer/nissan/guangdong/zhuhai/zhhpu,hpnissan@hpnissan.cn,,,,http://www.chebaba.com/dealer_S2015072210750.htm,广东省,珠海市
H2951,/Date(-62135596800000)/,,0,tencent://message/?Menu=yes&uin=564416890&Site=ebuy.dongfeng-nissan.com.cn&Service=300&sigT=45a1e5847943b64c6ff3990f8a9e644d2b31356cb0b4ac6b24663a3c8dd0f8aa12a595b1714f9d45,113.462962,22.213302,7b7c1d8c-77df-482d-9798-adc483666206,,False,,珠海南屏,,0,0756-8915992,珠海市南屏科技工业园屏西三路1号华科汽车展览中心展厅1（A）区,http://www.dongfeng-nissan.com.cn/DFLOffical/dealer/nissan/guangdong/zhuhai/zhnping,zhuhainanping@fengshenmotor.com,,,,http://www.chebaba.com/dealer_S2015072210497.htm,广东省,珠海市
H2933,/Date(-62135596800000)/,,0,tencent://message/?Menu=yes&uin=236308978&Site=ebuy.dongfeng-nissan.com.cn&Service=300&sigT=45a1e5847943b64c6ff3990f8a9e644d2b31356cb0b4ac6b24663a3c8dd0f8aa12a595b1714f9d45,113.501533,22.295823,7982d40e-f224-4e7e-911f-0d37fd36b8ab,,False,,珠海明珠,,0,0756-3895666 0756-3895999,珠海市香洲区前山工业区华语路123号,http://www.dongfeng-nissan.com.cn/DFLOffical/dealer/nissan/guangdong/zhuhai/zhmzhu,zhuhaimingzhu@fengshenmotor.com,,,,http://www.chebaba.com/dealer_S2015036934562.htm,广东省,珠海市
G3023,/Date(-62135596800000)/,,0,tencent://message/?Menu=yes&uin=524400499&Site=ebuy.dongfeng-nissan.com.cn&Service=300&sigT=45a1e5847943b64c6ff3990f8a9e644d2b31356cb0b4ac6b24663a3c8dd0f8aa12a595b1714f9d45,106.676798,23.86005,45c62069-5608-4387-b77c-b9544f82ad8c,,False,,百色广缘城东,,0,0776-2996768,广西壮族自治区百色市右江区城东大道大华厂路口北侧武警支队下坡300米处,http://www.dongfeng-nissan.com.cn/DFLOffical/dealer/nissan/guangxi/baise/bsgycdong,2304959915@qq.com,,,,http://www.chebaba.com/dealer_S2015072210747.htm,广西省,百色
G3015,/Date(-62135596800000)/,,0,tencent://message/?Menu=yes&uin=&Site=ebuy.dongfeng-nissan.com.cn&Service=300&sigT=45a1e5847943b64c6ff3990f8a9e644d2b31356cb0b4ac6b24663a3c8dd0f8aa12a595b1714f9d45,109.176666,21.50531,a8b21e59-c21d-412e-8d51-c68e510d5933,,False,,北海弘盛,,0,0779-2075881,广西壮族自治区北海市南珠大道中段南珠车站斜对面,http://www.dongfeng-nissan.com.cn/DFLOffical/dealer/nissan/guangxi/beihai/bhhsheng,beihaihongsheng@fengshenmotor.com,,,,http://www.chebaba.com/dealer_S2015072210361.htm,广西省,北海市
G3022,/Date(-62135596800000)/,,0,tencent://message/?Menu=yes&uin=1804468435&Site=ebuy.dongfeng-nissan.com.cn&Service=300&sigT=45a1e5847943b64c6ff3990f8a9e644d2b31356cb0b4ac6b24663a3c8dd0f8aa12a595b1714f9d45,108.396013,21.790636,c17e0b2d-9fdf-4f4f-81ef-0ad53188ce08,,False,,防城港鑫广达,,0,0770-3238008,广西防城港市防城区防钦路888号（距高速路出入口约1公里）,http://www.dongfeng-nissan.com.cn/DFLOffical/dealer/nissan/guangxi/fangchenggang/fcgxgda,1804468435@qq.com,,,,http://www.chebaba.com/dealer_S2015072210470.htm,广西省,防城港市
G3016,/Date(-62135596800000)/,,0,tencent://message/?Menu=yes&uin=1535260155&Site=ebuy.dongfeng-nissan.com.cn&Service=300&sigT=45a1e5847943b64c6ff3990f8a9e644d2b31356cb0b4ac6b24663a3c8dd0f8aa12a595b1714f9d45,109.634139,23.110318,31f6ddb8-f9a8-459f-b186-981dd4b37433,,False,,贵港金港,,0,0775-4582322,贵港市金港大道东段（市交警考试场对面）,http://www.dongfeng-nissan.com.cn/DFLOffical/dealer/nissan/guangxi/guigang/ggjgang,guigangjingang@fengshenmotor.com,,,,http://www.chebaba.com/dealer_S2015072210553.htm,广西省,贵港市
G3011,/Date(-62135596800000)/,,0,tencent://message/?Menu=yes&uin=511293927&Site=ebuy.dongfeng-nissan.com.cn&Service=300&sigT=45a1e5847943b64c6ff3990f8a9e644d2b31356cb0b4ac6b24663a3c8dd0f8aa12a595b1714f9d45,110.314431,25.358546,fe2bd60e-98b0-43b8-bc83-1b88e0461b68,,False,,桂林友爱,,0,0773-2639888,广西壮族自治区桂林市灵川八里街工业园区29-2-1号,http://www.dongfeng-nissan.com.cn/DFLOffical/dealer/nissan/guangxi/guilin/glyai,guilinyouai@fengshenmotor.com,,,,http://www.chebaba.com/dealer_S2015072210418.htm,广西省,桂林市
G3021,/Date(-62135596800000)/,,0,tencent://message/?Menu=yes&uin=2793124545&Site=ebuy.dongfeng-nissan.com.cn&Service=300&sigT=45a1e5847943b64c6ff3990f8a9e644d2b31356cb0b4ac6b24663a3c8dd0f8aa12a595b1714f9d45,110.202621,25.26878,a9a6d4aa-bd60-4127-b78e-3984348837ed,,False,,桂林真龙大成,,0,0773-5588511,广西省桂林市临桂县临桂镇鲁山工业园,http://www.dongfeng-nissan.com.cn/DFLOffical/dealer/nissan/guangxi/guilin/glzldcheng,guilinzldc@163.com,,,,http://www.chebaba.com/dealer_S2015072210974.htm,广西省,桂林市
G3018,/Date(-62135596800000)/,,0,tencent://message/?Menu=yes&uin=&Site=ebuy.dongfeng-nissan.com.cn&Service=300&sigT=45a1e5847943b64c6ff3990f8a9e644d2b31356cb0b4ac6b24663a3c8dd0f8aa12a595b1714f9d45,108.096462,24.694232,7a33d9df-d8f3-4f23-8b64-4bf738f3f573,,False,,河池弘池,,0,0778-2301133,广西省河池市金城江区南环路温峒隧道口东侧,http://www.dongfeng-nissan.com.cn/DFLOffical/dealer/nissan/guangxi/hechi/hchchi,hechihongchi@dfl.com.cn,,,,http://www.chebaba.com/dealer_S2015072210648.htm,广西省,河池
G3025,/Date(-62135596800000)/,,0,tencent://message/?Menu=yes&uin=2450748526&Site=ebuy.dongfeng-nissan.com.cn&Service=300&sigT=45a1e5847943b64c6ff3990f8a9e644d2b31356cb0b4ac6b24663a3c8dd0f8aa12a595b1714f9d45,111.595773,24.409812,7b8fabb5-1af9-44a0-8a68-3a9f647d535a,,False,,贺州合利诚,,0,0774-5228222,广西壮族自治区贺州市八步区东环路（原八步糖厂址）,http://www.dongfeng-nissan.com.cn/DFLOffical/dealer/nissan/guangxi/hezhou/hzhlcheng,hc7758258@qq.com,,,,http://www.chebaba.com/dealer_S2015072203439.htm,广西省,贺州
G3028,/Date(-62135596800000)/,,0,tencent://message/?Menu=yes&uin=&Site=ebuy.dongfeng-nissan.com.cn&Service=300&sigT=45a1e5847943b64c6ff3990f8a9e644d2b31356cb0b4ac6b24663a3c8dd0f8aa12a595b1714f9d45,109.24675,23.700129,b481ec15-4c43-474a-bdd3-ebd592957081,,False,,来宾广利,,0,0772-4823888,广西省来宾市河南工业园天然桥路与来良路交叉口西南角,http://www.dongfeng-nissan.com.cn/DFLOffical/dealer/nissan/guangxi/laibin/laibinanli,laibinguangli@dfl.com.cn,,,,,广西省,来宾市
G3020,/Date(-62135596800000)/,,0,tencent://message/?Menu=yes&uin=575772246&Site=ebuy.dongfeng-nissan.com.cn&Service=300&sigT=45a1e5847943b64c6ff3990f8a9e644d2b31356cb0b4ac6b24663a3c8dd0f8aa12a595b1714f9d45,109.44275,24.379322,fed2c48d-46e8-4cbc-a2f9-0547945d7dd0,,False,,柳州骏朋,,0,0772-8816333,柳州市双拥大道特8号B地块东风日产柳州骏朋专营店,http://www.dongfeng-nissan.com.cn/DFLOffical/dealer/nissan/guangxi/liuzhou/lzjpeng,liuzhoujunpeng-dmc@dfl.com.cn,,,,http://www.chebaba.com/dealer_S2015072210911.htm,广西省,柳州市
G3012,/Date(-62135596800000)/,,0,tencent://message/?Menu=yes&uin=2017279618&Site=ebuy.dongfeng-nissan.com.cn&Service=300&sigT=45a1e5847943b64c6ff3990f8a9e644d2b31356cb0b4ac6b24663a3c8dd0f8aa12a595b1714f9d45,109.46521,24.316326,1765fc91-e7f8-4316-928f-855a7b088445,,False,,柳州航盛,,0,0772-3160303,广西省柳州市鱼锋区西江路86-91号,http://www.dongfeng-nissan.com.cn/DFLOffical/dealer/nissan/guangxi/liuzhou/lzhsheng,liuzhouhangsheng@fengshenmotor.com,,,,http://www.chebaba.com/dealer_S2015072210373.htm,广西省,柳州市
G3006,/Date(-62135596800000)/,,0,tencent://message/?Menu=yes&uin=17709136&Site=ebuy.dongfeng-nissan.com.cn&Service=300&sigT=45a1e5847943b64c6ff3990f8a9e644d2b31356cb0b4ac6b24663a3c8dd0f8aa12a595b1714f9d45,108.465953,22.814027,b4a79360-8562-4395-8ac5-beb09725d515,,False,,南宁广缘仙葫,,0,0771-8051900,南宁市青秀区仙葫大道中14号（天池山对面）,http://www.dongfeng-nissan.com.cn/DFLOffical/dealer/nissan/guangxi/nanning/nngyxhu,17709136@qq.com,,,,http://www.chebaba.com/dealer_S2015072210398.htm,广西省,南宁市
G3001,/Date(-62135596800000)/,,0,tencent://message/?Menu=yes&uin=2210950773&Site=ebuy.dongfeng-nissan.com.cn&Service=300&sigT=45a1e5847943b64c6ff3990f8a9e644d2b31356cb0b4ac6b24663a3c8dd0f8aa12a595b1714f9d45,108.294375,22.759333,1e90e397-be1b-42fd-9648-112d866b9134,,False,,南宁弘帆,,0,0771-4920111,南宁市国凯大道2-6号（国凯大道与钦州路交汇处）,http://www.dongfeng-nissan.com.cn/DFLOffical/dealer/nissan/guangxi/nanning/nnhfan,nanninghongfan@fengshenmotor.com,,,,http://www.chebaba.com/dealer_S2015072210406.htm,广西省,南宁市
G3005,/Date(-62135596800000)/,,0,tencent://message/?Menu=yes&uin=529030688&Site=ebuy.dongfeng-nissan.com.cn&Service=300&sigT=45a1e5847943b64c6ff3990f8a9e644d2b31356cb0b4ac6b24663a3c8dd0f8aa12a595b1714f9d45,108.268263,22.783159,b99ea6c8-c59b-42a4-a445-a343834dfff2,,False,,南宁弘天,,0,0771-4950800,广西南宁市南站大道16号南站汽车城,http://www.dongfeng-nissan.com.cn/DFLOffical/dealer/nissan/guangxi/nanning/nnhtian,693195914@qq.com,,,,http://www.chebaba.com/dealer_S2015072210771.htm,广西省,南宁市
G3003,/Date(-62135596800000)/,,0,tencent://message/?Menu=yes&uin=201717812&Site=ebuy.dongfeng-nissan.com.cn&Service=300&sigT=45a1e5847943b64c6ff3990f8a9e644d2b31356cb0b4ac6b24663a3c8dd0f8aa12a595b1714f9d45,108.276775,22.860133,a2750508-0deb-4372-bbe8-9219333a2da2,,False,,南宁广缘,,0,0771-3211182,广西南宁市高新区科园大道45-1号,http://www.dongfeng-nissan.com.cn/DFLOffical/dealer/nissan/guangxi/nanning/nngyuan,nanningguangyuan@fengshenmotor.com,,,,http://www.chebaba.com/dealer_S2015072210392.htm,广西省,南宁市
G3002,/Date(-62135596800000)/,,0,tencent://message/?Menu=yes&uin=48680824&Site=ebuy.dongfeng-nissan.com.cn&Service=300&sigT=45a1e5847943b64c6ff3990f8a9e644d2b31356cb0b4ac6b24663a3c8dd0f8aa12a595b1714f9d45,108.370931,22.868666,7d5b488d-c453-428b-a83e-512e58c6a584,,False,,南宁瑞帆,,0,0771-13132811611,广西壮族自治区南宁市秀厢大道199号金源汽车城(邕宾立交旁),http://www.dongfeng-nissan.com.cn/DFLOffical/dealer/nissan/guangxi/nanning/nnrfan,nanningruifan@fengshenmotor.com,,,,http://www.chebaba.com/dealer_S2015072210451.htm,广西省,南宁市
G3019,/Date(-62135596800000)/,,0,tencent://message/?Menu=yes&uin=1773255162&Site=ebuy.dongfeng-nissan.com.cn&Service=300&sigT=45a1e5847943b64c6ff3990f8a9e644d2b31356cb0b4ac6b24663a3c8dd0f8aa12a595b1714f9d45,108.642172,21.945828,fddf69bc-418f-4021-9ced-117f288e5f83,,False,,钦州广缘金海湾,,0,0777-2899848,广西钦州市钦南区金海湾东大街95号（北部湾建材城旁）,http://www.dongfeng-nissan.com.cn/DFLOffical/dealer/nissan/guangxi/qinzhou/qzgyjhwan,398504242@qq.com,,,,http://www.chebaba.com/dealer_S2015072210745.htm,广西省,钦州市
G3017,/Date(-62135596800000)/,,0,tencent://message/?Menu=yes&uin=790247384&Site=ebuy.dongfeng-nissan.com.cn&Service=300&sigT=45a1e5847943b64c6ff3990f8a9e644d2b31356cb0b4ac6b24663a3c8dd0f8aa12a595b1714f9d45,111.266744,23.49592,d2f3ad6a-2087-478d-bcba-6a780d37db61,,False,,梧州合利丰,,0,0774-3897888,梧州市长洲区平浪村下平五组大垌冲东风日产合利丰专营店,http://www.dongfeng-nissan.com.cn/DFLOffical/dealer/nissan/guangxi/wuzhou/wzhlfeng,wuzhouhelifeng-dmc@dfl.com.cn,,,,http://www.chebaba.com/dealer_S2015072210638.htm,广西省,梧州市
G3026,/Date(-62135596800000)/,,0,tencent://message/?Menu=yes&uin=&Site=ebuy.dongfeng-nissan.com.cn&Service=300&sigT=45a1e5847943b64c6ff3990f8a9e644d2b31356cb0b4ac6b24663a3c8dd0f8aa12a595b1714f9d45,110.13313,22.624212,4f39b98a-9706-4a42-9d12-3c439d6f1850,,False,,玉林汇利成,,0,0775-2263818,广西壮族自治区玉林市城西开发区金龙大转盘南侧,http://www.dongfeng-nissan.com.cn/DFLOffical/dealer/nissan/guangxi/yulin/ylhlcheng,yulinhuilicheng@dfl.com.cn,,,,http://www.chebaba.com/dealer_S20160410307739.htm,广西省,玉林市
