{"294": {"id": "294", "name": "\u5317\u4eac\u4e09\u5143\u6865", "lng": "116.456547", "lat": "39.962357", "province": "\u5317\u4eac", "city": "\u5317\u4eac", "address": "\u5317\u4eac\u5e02\u671d\u9633\u533a\u5de6\u5bb6\u5e84\u8def2\u53f7", "phone_service": "010-84541072|010-84541073", "phone_seal": "010-84541077|010-84541078", "website": "bjsyq", "phone": ""}, "295": {"id": "295", "name": "\u5317\u4eac\u82b1\u4e61\u6865", "lng": "116.320340", "lat": "39.834984", "province": "\u5317\u4eac", "city": "\u5317\u4eac", "address": "\u5317\u4eac\u5e02\u5927\u5174\u533a\u6d77\u946b\u5317\u8def9\u53f7", "phone_service": "010-61260799", "phone_seal": "010-61260988", "website": "bjhxq", "phone": ""}, "296": {"id": "296", "name": "\u5317\u4eac\u65b9\u5e84", "lng": "116.428819", "lat": "39.865877", "province": "\u5317\u4eac", "city": "\u5317\u4eac", "address": "\u5317\u4eac\u5e02\u4e30\u53f0\u533a\u84b2\u9ec4\u6986\u8def48\u53f7", "phone_service": "010-67630606", "phone_seal": "010-87610750|010-87610751", "website": "bjfz", "phone": ""}, "297": {"id": "297", "name": "\u5317\u4eac\u9996\u6c7d", "lng": "116.495005", "lat": "39.965054", "province": "\u5317\u4eac", "city": "\u5317\u4eac", "address": "\u5317\u4eac\u5e02\u671d\u9633\u533a\u4eae\u9a6c\u6865\u8def9\u53f7", "phone_service": "010-64374008", "phone_seal": "010-64365852", "website": "jbsq", "phone": ""}, "298": {"id": "298", "name": "\u5317\u4eac\u91d1\u51a0\u5174\u4e1a", "lng": "116.264481", "lat": "39.978825", "province": "\u5317\u4eac", "city": "\u5317\u4eac", "address": "\u5317\u4eac\u5e02\u6d77\u6dc0\u533a\u95f5\u5e84\u8def6\u53f7(\u897f\u5317\u56db\u73af\u201c\u9999\u5c71\u3001\u7389\u6cc9\u5c71\u201d\u51fa\u53e3\u897f\u884c1\u516c\u91cc\u7ea2\u7eff\u706f\u5de6\u8f6c\u8def\u5357)", "phone_service": "010-88890606", "phone_seal": "010-88890601|010-88890602", "website": "bjjgxy", "phone": ""}, "299": {"id": "299", "name": "\u5317\u4eac\u5965\u5fb7\u884c", "lng": "116.361079", "lat": "39.858293", "province": "\u5317\u4eac", "city": "\u5317\u4eac", "address": "\u4e30\u53f0\u533a\u5357\u4e09\u73af\u897f\u8def39\u53f7", "phone_service": "010-83520100", "phone_seal": "010-83520100", "website": "bjadh", "phone": ""}, "300": {"id": "300", "name": "\u5317\u4eac\u5e7f\u901a", "lng": "116.367108", "lat": "40.021562", "province": "\u5317\u4eac", "city": "\u5317\u4eac", "address": "\u5317\u4eac\u5e02\u671d\u9633\u533a\u5fb7\u5916\u82b1\u864e\u6c9f20\u53f7", "phone_service": "010-62916666", "phone_seal": "010-62916666", "website": "bjgt", "phone": ""}, "301": {"id": "301", "name": "\u5317\u4eac\u51ef\u767e\u9686", "lng": "116.259723", "lat": "40.058315", "province": "\u5317\u4eac", "city": "\u5317\u4eac", "address": "\u5317\u4eac\u5e02\u6d77\u6dc0\u533a\u897f\u5317\u65fa\u9547\u6c38\u4e30\u8def\u767e\u65fa\u7eff\u8c37\u6c7d\u8f66\u56ed", "phone_service": "010-82402677", "phone_seal": "010-82402662", "website": "bjkbl", "phone": ""}, "302": {"id": "302", "name": "\u5317\u4eac\u4e94\u65b9\u6865", "lng": "116.553052", "lat": "39.870478", "province": "\u5317\u4eac", "city": "\u5317\u4eac", "address": "\u5317\u4eac\u5e02\u671d\u9633\u533a\u4eac\u6c88\u9ad8\u901f\u4e94\u65b9\u6865\u897f\u5357\u4fa7", "phone_service": "010-87390099", "phone_seal": "010-87390011", "website": "bjwfq", "phone": ""}, "303": {"id": "303", "name": "\u5317\u4eac\u4e2d\u4e1a", "lng": "116.353758", "lat": "39.833822", "province": "\u5317\u4eac", "city": "\u5317\u4eac", "address": "\u5317\u4eac\u5e02\u4e30\u53f0\u533a\u5357\u56db\u73af\u4e2d\u8def260\u53f7(\u9a6c\u5bb6\u697c\u6865\u4e1c\u5357\u89d2)", "phone_service": "010-87504020", "phone_seal": "010-87500088", "website": "bjzy", "phone": ""}, "304": {"id": "304", "name": "\u5317\u4eac\u82f9\u679c\u56ed", "lng": "116.188917", "lat": "39.930835", "province": "\u5317\u4eac", "city": "\u5317\u4eac", "address": "\u5317\u4eac\u5e02\u77f3\u666f\u5c71\u533a\u961c\u77f3\u8def175\u53f7", "phone_service": "010-68829886\u8f6c8105/6/7/15", "phone_seal": "010-68888200|010-68829886\u8f6c8101|0", "website": "bjpgy", "phone": ""}, "305": {"id": "305", "name": "\u5317\u4eac\u4e1c\u4ec1\u5929\u5b87", "lng": "116.579403", "lat": "39.944862", "province": "\u5317\u4eac", "city": "\u5317\u4eac", "address": "\u5317\u4eac\u5e02\u671d\u9633\u533a\u5e73\u623f\u4e61\u77f3\u5404\u5e84\u6751\u75321\u53f7", "phone_service": "010-65469600<br>010-65469630", "phone_seal": "010-65469090|010-65469191", "website": "bjdrty", "phone": ""}, "306": {"id": "306", "name": "\u5317\u4eac\u82b1\u56ed\u6865", "lng": "116.317117", "lat": "39.937244", "province": "\u5317\u4eac", "city": "\u5317\u4eac", "address": "\u5317\u4eac\u5e02\u6d77\u6dc0\u533a\u8f66\u516c\u5e84\u897f\u8def38\u53f7(\u82b1\u56ed\u6865\u4e1c\u5357\u89d2)", "phone_service": "010-68713131", "phone_seal": "010-68728888-\u9500\u552e\u90e8", "website": "bjhyq", "phone": ""}, "310": {"id": "310", "name": "\u5317\u4eac\u8fd0\u901a\u535a\u88d5", "lng": "116.512318", "lat": "39.818854", "province": "\u5317\u4eac", "city": "\u5317\u4eac", "address": "\u5317\u4eac\u7ecf\u6d4e\u6280\u672f\u5f00\u53d1\u533a\u6587\u5316\u56ed\u4e1c\u8def\u4e596\u53f7", "phone_service": "010-67862966|010-67865102", "phone_seal": "010-67862866|010-67864866", "website": "bjytby", "phone": ""}, "311": {"id": "311", "name": "\u5317\u4eac\u534e\u901a", "lng": "116.661334", "lat": "39.896172", "province": "\u5317\u4eac", "city": "\u5317\u4eac", "address": "\u5317\u4eac\u5e02\u901a\u5dde\u533a\u68a8\u56ed\u4e5d\u68f5\u6811\u897f\u8def11\u53f7", "phone_service": "010-81521020|010-81521622", "phone_seal": "010-81520315|010-81520915", "website": "bjht", "phone": ""}, "312": {"id": "312", "name": "\u5317\u4eac\u8fce\u5bbe\u4e2d\u5347", "lng": "116.243307", "lat": "39.931795", "province": "\u5317\u4eac", "city": "\u5317\u4eac", "address": "\u5317\u4eac\u5e02\u6d77\u6dc0\u533a\u961c\u77f3\u8def63\u53f7", "phone_service": "010-88208080|\u8f6c605/609|010-68179915", "phone_seal": "010-88208080\u8f6c601|603", "website": "bjsh", "phone": ""}, "315": {"id": "315", "name": "\u5317\u4eac\u5317\u82d1", "lng": "116.442338", "lat": "40.028313", "province": "\u5317\u4eac", "city": "\u5317\u4eac", "address": "\u5317\u4eac\u5e02\u671d\u9633\u533a\u6765\u5e7f\u8425\u897f\u8def95\u53f7", "phone_service": "010-84921026|010-84922303", "phone_seal": "010-84928566|010-84921325", "website": "bjby", "phone": ""}, "466": {"id": "466", "name": "\u5317\u4eac\u535a\u4e30\u957f\u4e45", "lng": "116.601311", "lat": "40.130502", "province": "\u5317\u4eac", "city": "\u5317\u4eac", "address": "\u5317\u4eac\u5e02\u987a\u4e49\u533a\u7a7a\u6e2f\u7269\u6d41\u57fa\u5730\u987a\u822a\u8def18\u53f7(\u987a\u822a\u8def\u4e1c\u4fa7)\u4e00\u6c7d\u4e30\u75304S\u5e97", "phone_service": "010-69450695", "phone_seal": "010-69479998", "website": "bjbfcj", "phone": ""}, "736": {"id": "736", "name": "\u5317\u4eac\u5317\u82d1\u6000\u67d4\u5206\u5e97", "lng": "116.647759", "lat": "40.295007", "province": "\u5317\u4eac", "city": "\u5317\u4eac", "address": "\u6000\u67d4\u533a\u5e99\u57ce\u9547\u9ad8\u4e24\u6cb3\u6751346\u53f7", "phone_service": "010-60699306", "phone_seal": "010-60699302", "website": "bjby_hr", "phone": ""}, "737": {"id": "737", "name": "\u5317\u4eac\u51ef\u767e\u9686\u660c\u5e73\u5206\u5e97", "lng": "116.259823", "lat": "40.058116", "province": "\u5317\u4eac", "city": "\u5317\u4eac", "address": "\u5317\u4eac\u5e02\u6d77\u6dc0\u533a\u897f\u5317\u65fa\u6c38\u4e30\u8def\u767e\u65fa\u7eff\u8c37\u6c7d\u8f66\u56ed\u5317\u4eac\u51ef\u767e\u9686\u4e30\u7530", "phone_service": "010-82402680", "phone_seal": "010-82402680", "website": "kbl_cp", "phone": ""}, "231": {"id": "231", "name": "\u5929\u6d25\u67f3\u6797", "lng": "117.300274", "lat": "39.069745", "province": "\u5929\u6d25", "city": "\u5929\u6d25", "address": "\u5929\u6d25\u5e02\u6cb3\u897f\u533a\u5927\u6cbd\u5357\u8def\u5357\u5934", "phone_service": "022-88180123/88180666", "phone_seal": "022-88180808|88288772", "website": "tjll", "phone": ""}, "232": {"id": "232", "name": "\u5929\u6d25\u4e1c\u8054", "lng": "117.374550", "lat": "39.166917", "province": "\u5929\u6d25", "city": "\u5929\u6d25", "address": "\u5929\u6d25\u5e02\u4e1c\u4e3d\u533a\u7a7a\u6e2f\u7269\u6d41\u7ecf\u6d4e\u533a\u73af\u6cb3\u5317\u8def18\u53f7", "phone_service": "022-84905518", "phone_seal": "022-84905522", "website": "tjdl", "phone": ""}, "233": {"id": "233", "name": "\u5929\u6d25\u4e2d\u4e52", "lng": "117.214235", "lat": "39.211665", "province": "\u5929\u6d25", "city": "\u5929\u6d25", "address": "\u5929\u6d25\u5e02\u5317\u8fb0\u533a\u666e\u6d4e\u6cb3\u4e1c\u8def/\u905320\u53f7(\u4e07\u79d1\u65b0\u57ce\u65c1)", "phone_service": "26727243   26727245", "phone_seal": "26727246 26727247", "website": "tjzp", "phone": ""}, "234": {"id": "234", "name": "\u5929\u6d25\u534e\u82d1", "lng": "117.133815", "lat": "39.097851", "province": "\u5929\u6d25", "city": "\u5929\u6d25", "address": "\u5929\u6d25\u5e02\u534e\u82d1\u4ea7\u4e1a\u533a\u6885\u82d1\u8def10\u53f7", "phone_service": "022-83715888 022-83715222", "phone_seal": "022-83715666", "website": "tjhuayuan", "phone": ""}, "236": {"id": "236", "name": "\u5929\u6d25\u6d69\u7269", "lng": "117.661390", "lat": "39.000938", "province": "\u5929\u6d25", "city": "\u5929\u6d25", "address": "\u5929\u6d25\u5e02\u5858\u6cbd\u533a\u6cb3\u5357\u8def1376\u53f7", "phone_service": "022-25380000", "phone_seal": "022-25380777|022-25380555", "website": "tjhw", "phone": ""}, "237": {"id": "237", "name": "\u5929\u6d25\u548c\u88d5", "lng": "117.202311", "lat": "39.047925", "province": "\u5929\u6d25", "city": "\u5929\u6d25", "address": "\u5929\u6d25\u5e02\u536b\u6d25\u5357\u8def299\u53f7(\u5916\u73af\u7ebf\u5185200\u7c73)", "phone_service": "022-24033699", "phone_seal": "022-24033543", "website": "tjhy", "phone": ""}, "344": {"id": "344", "name": "\u5929\u6d25\u67f3\u6797\u91d1\u6d77", "lng": "117.007259", "lat": "38.953647", "province": "\u5929\u6d25", "city": "\u5929\u6d25", "address": "\u5929\u6d25\u5e02\u9759\u6d77\u7ecf\u6d4e\u5f00\u53d1\u533a\u91d1\u6d77\u9053\u4e0e\u6d25\u6587\u516c\u8def\u4ea4\u53e3", "phone_service": "022-68608111", "phone_seal": "022-68608111", "website": "tjlljh", "phone": ""}, "373": {"id": "373", "name": "\u5929\u6d25\u5965\u5609", "lng": "117.093562", "lat": "39.338272", "province": "\u5929\u6d25", "city": "\u5929\u6d25", "address": "\u5929\u6d25\u5e02\u6b66\u6e05\u533a\u4e0b\u6731\u5e84\u8857\u4eac\u6d25\u516c\u8def\u4e1c\u4fa7", "phone_service": "022-59691566|022-59691577", "phone_seal": "022-59692266|022-59692288", "website": "tjaj", "phone": ""}, "494": {"id": "494", "name": "\u5929\u6d25\u5965\u5fb7\u884c\u6d25\u76db", "lng": "117.384375", "lat": "38.985947", "province": "\u5929\u6d25", "city": "\u5929\u6d25", "address": "\u5929\u6d25\u5e02\u6d25\u5357\u533a\u54b8\u6c34\u6cbd\u9547\u6d25\u6b67\u8def69\u53f7", "phone_service": "022-28766000", "phone_seal": "022-28766588", "website": "tjadhjs", "phone": ""}, "540": {"id": "540", "name": "\u5929\u6d25\u5e9e\u5927\u4e30\u96c5", "lng": "117.122369", "lat": "39.260762", "province": "\u5929\u6d25", "city": "\u5929\u6d25", "address": "\u5929\u6d25\u5e02\u5317\u8fb0\u533a\u53cc\u8857\u9547\u4eac\u6d25\u516c\u8def\u4e1c\u4fa7\u53cc\u6c5f\u9053\u5357", "phone_service": "022-86907120", "phone_seal": "022-86907111", "website": "tjpdfy", "phone": ""}, "834": {"id": "834", "name": "\u5929\u6d25\u5965\u5fb7\u884c\u5b9d\u577b\u5206\u5e97", "lng": "117.348072", "lat": "39.716530", "province": "\u5929\u6d25", "city": "\u5929\u6d25", "address": "\u5929\u6d25\u5e02\u5b9d\u577b\u533a\u5357\u73af\u4e1c\u8def\u5357\u4fa7\uff08\u673a\u52a8\u8f66\u4ea4\u6613\u5e02\u573a\u897f\u533a\uff09", "phone_service": "022-59950109", "phone_seal": "022-59210123 ", "website": "tjadhjs_bd", "phone": ""}, "966": {"id": "966", "name": "\u5929\u6d25\u51ef\u8fbe<em style='color:red;font-style:normal;'>\u3010\u6682\u505c\u670d\u52a1\u3011</em>", "lng": "117.724367", "lat": "39.045523", "province": "\u5929\u6d25", "city": "\u5929\u6d25", "address": "\u5929\u6d25\u5f00\u53d1\u533a\u7b2c\u4e94\u5927\u885763\u53f7", "phone_service": "022-66293300", "phone_seal": "022-66298771", "website": "tjkd", "phone": ""}, "968": {"id": "968", "name": "\u5929\u6d25\u5965\u5fb7\u884c\u6d25\u76db\u84df\u5dde\u5206\u5e97", "lng": "117.424214", "lat": "40.035532", "province": "\u5929\u6d25", "city": "\u5929\u6d25", "address": "\u5929\u6d25\u5e02\u84df\u5dde\u533a\u6e14\u9633\u9547\u4e2d\u660c\u5317\u5927\u9053430\u53f7", "phone_service": "", "phone_seal": "022-29185788 |022-29135788|022-29192828", "website": "tjadhjs_jz", "phone": ""}, "969": {"id": "969", "name": "\u5929\u6d25\u534e\u82d1\u4e2d\u5317\u9547\u5206\u5e97", "lng": "117.048693", "lat": "39.124794", "province": "\u5929\u6d25", "city": "\u5929\u6d25", "address": "\u5929\u6d25\u5e02\u897f\u9752\u533a\u4e2d\u5317\u9547\u4eac\u798f\u516c\u8def\u4e0e\u8425\u5efa\u652f\u8def\u4ea4\u53e3\u897f\u5317\u4fa750\u7c73", "phone_service": "13803033377", "phone_seal": "13820755277", "website": "tjhy_zbz", "phone": ""}, "1021": {"id": "1021", "name": "\u5929\u6d25\u5e9e\u5927\u4e30\u96c5\u5357\u5f00\u533a\u5206\u5e97", "lng": "117.144743", "lat": "39.137404", "province": "\u5929\u6d25", "city": "\u5929\u6d25", "address": "\u5929\u6d25\u5e02\u5357\u5f00\u533a\u54b8\u9633\u8def74\u53f7", "phone_service": "022-86907120", "phone_seal": "022-83577718", "website": "pdfy_nk", "phone": ""}, "1032": {"id": "1032", "name": "\u5929\u6d25\u5965\u5609\u738b\u5e86\u5768\u5206\u5e97", "lng": "117.075867", "lat": "39.375140", "province": "\u5929\u6d25", "city": "\u5929\u6d25", "address": "\u5929\u6d25\u5e02\u6b66\u6e05\u533a\u738b\u5e86\u5768\u9547\u91d1\u5a01\u65b0\u5929\u57301-1", "phone_service": "022-59691587", "phone_seal": "022-59692266", "website": "aj_wqt", "phone": ""}, "1044": {"id": "1044", "name": "\u5929\u6d25\u5965\u5fb7\u884c\u6d25\u76db\u897f\u9752\u5206\u5e97", "lng": "117.278448", "lat": "39.003676", "province": "\u5929\u6d25", "city": "\u5929\u6d25", "address": "\u897f\u9752\u7ecf\u6d4e\u5f00\u53d1\u533a\u5927\u5bfa\u9ad8\u65b0\u6280\u672f\u4ea7\u4e1a\u56ed\u50a8\u534e\u90535\u53f7", "phone_service": "", "phone_seal": "022-28766788", "website": "tjadhjs_xq", "phone": ""}, "241": {"id": "241", "name": "\u77f3\u5bb6\u5e84\u65b0\u534e", "lng": "114.469225", "lat": "38.091485", "province": "\u6cb3\u5317", "city": "\u77f3\u5bb6\u5e84", "address": "\u77f3\u5bb6\u5e84\u5e02\u5317\u4e8c\u73af\u897f\u8def\u4e0e\u6cf0\u534e\u8857\u4ea4\u53c9\u53e3\u897f\u5357\u89d2\uff08\u6c34\u4e0a\u516c\u56ed\u4e1c\u95e8\u5317\u884c1000\u7c73\u8def\u897f\uff09", "phone_service": "0311-87733688|13333385701", "phone_seal": "0311-87733888|13333385702", "website": "sjzxh", "phone": ""}, "242": {"id": "242", "name": "\u77f3\u5bb6\u5e84\u88d5\u534e", "lng": "114.631505", "lat": "38.041829", "province": "\u6cb3\u5317", "city": "\u77f3\u5bb6\u5e84", "address": "\u77f3\u5bb6\u5e84\u5e02\u9ad8\u65b0\u533a\u957f\u6c5f\u5927\u9053\u4e0e\u534e\u5c71\u8857\u4ea4\u53e3\u5317\u884c50\u7c73\u8def\u4e1c\uff08\u5353\u8fbe\u661f\u8fb0\u5e7f\u573a\u5bf9\u9762\uff09", "phone_service": "0311-85087000|", "phone_seal": "0311-85069999|13333385630", "website": "sjzyh", "phone": ""}, "243": {"id": "243", "name": "\u77f3\u5bb6\u5e84\u7eaa\u5143", "lng": "114.521293", "lat": "38.007525", "province": "\u6cb3\u5317", "city": "\u77f3\u5bb6\u5e84", "address": "\u77f3\u5bb6\u5e84\u5e02\u5357\u4e8c\u73af\u4e1c\u8def3\u53f7\u4ed81\u53f7", "phone_service": "0311-85219555", "phone_seal": "0311-85255566", "website": "sjzjy", "phone": ""}, "388": {"id": "388", "name": "\u77f3\u5bb6\u5e84\u7eaa\u5143\u8f9b\u96c6\u5206\u5e97", "lng": "115.223668", "lat": "37.967987", "province": "\u6cb3\u5317", "city": "\u77f3\u5bb6\u5e84", "address": "\u8f9b\u96c6\u5e02\u5317\u5916\u73af\u4e1c\u6bb5(\u5e9e\u5927\u6c7d\u8f66\u8d85\u5e02\u9662\u5185)", "phone_service": "0311-83272001", "phone_seal": "0311-83272000", "website": "sjzjy_xj", "phone": ""}, "625": {"id": "625", "name": "\u77f3\u5bb6\u5e84\u5efa\u534e", "lng": "114.558821", "lat": "38.077697", "province": "\u6cb3\u5317", "city": "\u77f3\u5bb6\u5e84", "address": "\u6cb3\u5317\u7701\u77f3\u5bb6\u5e84\u5e02\u957f\u5b89\u533a\u5317\u4e8c\u73af\u4e1c\u8def86\u53f7\uff08\u56fd\u9645\u6c7d\u8f66\u56ed\u533a\uff09", "phone_service": "0311-68096999", "phone_seal": "0311-68096888", "website": "jhft", "phone": ""}, "741": {"id": "741", "name": "\u77f3\u5bb6\u5e84\u7eaa\u5143\u9e7f\u6cc9\u5206\u5e97", "lng": "114.324814", "lat": "38.080862", "province": "\u6cb3\u5317", "city": "\u77f3\u5bb6\u5e84", "address": "\u6cb3\u5317\u7701\u77f3\u5bb6\u5e84\u5e02\u9e7f\u6cc9\u5e02\u9f99\u6cc9\u8def48\u53f7", "phone_service": "0311-82205400", "phone_seal": "0311-82205400", "website": "sjzjy_lu", "phone": ""}, "909": {"id": "909", "name": "\u77f3\u5bb6\u5e84\u7eaa\u5143\u6b63\u5b9a\u5206\u5e97", "lng": "114.552553", "lat": "38.140179", "province": "\u6cb3\u5317", "city": "\u77f3\u5bb6\u5e84", "address": "\u77f3\u5bb6\u5e84\u5e02\u6b63\u5b9a\u53bf\u8f66\u7ad9\u5357\u5927\u8857156\u53f7", "phone_service": "0311-89190001", "phone_seal": "0311-89190006", "website": "sjzjy_zd", "phone": ""}, "239": {"id": "239", "name": "\u5510\u5c71\u5180\u4e1c", "lng": "118.203929", "lat": "39.621643", "province": "\u6cb3\u5317", "city": "\u5510\u5c71", "address": "\u5510\u5c71\u5e02\u8def\u5357\u533a\u6c38\u7ea2\u6865\u897f\u4fa7\u8def\u5357", "phone_service": "0315-2822066|       0315-2832999", "phone_seal": "0315-2829718|       0315-2829798", "website": "tsjd", "phone": ""}, "240": {"id": "240", "name": "\u5510\u5c71\u5f18\u5fb7", "lng": "118.207801", "lat": "39.597512", "province": "\u6cb3\u5317", "city": "\u5510\u5c71", "address": "\u5510\u5c71\u5e02\u8def\u5357\u533a\u5357\u5916\u73af\u8def\u6c7d\u8f66\u5de5\u4e1a\u56ed\u533a232\u53f7", "phone_service": "0315-2969292", "phone_seal": "0315-2969788", "website": "tshd", "phone": ""}, "378": {"id": "378", "name": "\u5510\u5c71\u5180\u4e1c\u9075\u5316\u5206\u5e97", "lng": "117.959244", "lat": "40.148347", "province": "\u6cb3\u5317", "city": "\u5510\u5c71", "address": "\u9075\u5316\u5e02\u897f\u7559\u6751\u4e61\u767d\u65b9\u5bfa\u6751", "phone_service": "13373158119", "phone_seal": "13373158116", "website": "tsjd_zh", "phone": ""}, "521": {"id": "521", "name": "\u5510\u5c71\u5180\u4e1c\u5510\u6d77\u5206\u5e97", "lng": "118.429600", "lat": "39.273940", "province": "\u6cb3\u5317", "city": "\u5510\u5c71", "address": "\u5510\u6d77\u8def\u4e0e\u6cbf\u6d77\u8def\u4ea4\u53e3\u5e9e\u5927\u6c7d\u8d38\u9662\u5185", "phone_service": "0315-5079191|0315-5070099", "phone_seal": "0315-5079090", "website": "tsjd_th", "phone": ""}, "522": {"id": "522", "name": "\u5510\u5c71\u5f18\u5fb7\u6ee6\u53bf\u5206\u5e97", "lng": "118.759700", "lat": "39.755070", "province": "\u6cb3\u5317", "city": "\u5510\u5c71", "address": "\u5510\u5c71\u5e02\u6ee6\u53bf205\u56fd\u9053\u7acb\u4ea4\u6865\u6bb5\u5357\u4fa7\u5e9e\u5927\u6c7d\u8d38\u57ce", "phone_service": "0315-5037799", "phone_seal": "0315-5037788", "website": "tshd_lx", "phone": ""}, "599": {"id": "599", "name": "\u5510\u5c71\u5180\u4e1c\u6ee6\u5357\u5206\u5e97", "lng": "118.687204", "lat": "39.519821", "province": "\u6cb3\u5317", "city": "\u5510\u5c71", "address": "\u5510\u5c71\u5e02\u6ee6\u5357\u53bf\u57ce\u5357\u5927\u8857\u5357\u4fa7\u5e9e\u5927\u6c7d\u8d38\u897f\u4fa7", "phone_service": "0315-4165033", "phone_seal": "0315-4165003", "website": "tsjdln", "phone": ""}, "762": {"id": "762", "name": "\u5510\u5c71\u5180\u4e1c\u9ad8\u65b0\u533a\u5206\u5e97", "lng": "118.175562", "lat": "39.729561", "province": "\u6cb3\u5317", "city": "\u5510\u5c71", "address": "\u9ad8\u65b0\u533a\u6280\u672f\u5f00\u53d1\u533a\u90d1\u5e84\u5b50\u4e61\u524d\u767d\u5bfa\u53e3\u6751\u897f(\u8001\u5510\u4e30\u8def\u6536\u8d39\u7ad9\u5317\u884c1.2\u516c\u91cc\u8def\u4e1c)", "phone_service": "0315-3162788|0315-3162788", "phone_seal": "0315-3162588", "website": "tsjdgxq", "phone": ""}, "863": {"id": "863", "name": "\u5510\u5c71\u5f18\u5fb7\u8fc1\u897f\u5206\u5e97", "lng": "118.338610", "lat": "40.173396", "province": "\u6cb3\u5317", "city": "\u5510\u5c71", "address": "\u6cb3\u5317\u7701\u5510\u5c71\u5e02\u8fc1\u897f\u53bf\u5f69\u8679\u6865\u53172\u516c\u91cc\u8def\u4e1c", "phone_service": "0315-5768088", "phone_seal": "0315-5766088 ", "website": "tshd_qx", "phone": ""}, "910": {"id": "910", "name": "\u5510\u5c71\u5f18\u5fb7\u7389\u7530\u5206\u516c\u53f8", "lng": "117.717909", "lat": "39.901457", "province": "\u6cb3\u5317", "city": "\u5510\u5c71", "address": "\u5510\u5c71\u5e02\u7389\u7530\u53bf\u897f\u5916\u73af\u94f6\u6cb3\u4e2d\u5b66\u4e1c\u4fa7", "phone_service": "0315-5053009", "phone_seal": "0315-5053008", "website": "tshd_yt", "phone": ""}, "912": {"id": "912", "name": "\u5510\u5c71\u5f18\u5fb7\u4e50\u4ead\u5206\u516c\u53f8", "lng": "118.266798", "lat": "39.638522", "province": "\u6cb3\u5317", "city": "\u5510\u5c71", "address": "\u5510\u5c71\u5e02\u4e50\u4ead\u91d1\u878d\u8857\u4e0e\u4e1c\u5916\u73af\u4ea4\u53c9\u53e3\u5e9e\u5927\u6c7d\u8f66\u56ed", "phone_service": "0315-4081806", "phone_seal": "0315-4081000 ", "website": "tshd_lt", "phone": ""}, "1023": {"id": "1023", "name": "\u5510\u5c71\u5180\u4e1c\u5f00\u5e73\u5206\u5e97", "lng": "118.207706", "lat": "39.597549", "province": "\u6cb3\u5317", "city": "\u5510\u5c71", "address": "\u5510\u5c71\u5e02\u5f00\u5e73\u533a\u5f00\u8d8a\u8def\u6c7d\u8f66\u5de5\u4e1a\u56ed\u533a", "phone_service": "", "phone_seal": "", "website": "tsjd_kp", "phone": ""}, "1052": {"id": "1052", "name": "\u8fc1\u5b89\u6da6\u8fbe<em style='color:red;font-style:normal;'>\u3010\u6682\u505c\u670d\u52a1\u3011</em>", "lng": "118.592276", "lat": "40.011381", "province": "\u6cb3\u5317", "city": "\u5510\u5c71", "address": "\u8fc1\u5b89\u5e02\u6768\u5e97\u5b50\u9547\u653f\u5e9c\u5357\u884c100\u7c73", "phone_service": "0315-7856666", "phone_seal": "0315-5350688", "website": "qard", "phone": ""}, "249": {"id": "249", "name": "\u79e6\u7687\u5c9b\u9f99\u4e4b\u4fca", "lng": "119.536490", "lat": "39.944578", "province": "\u6cb3\u5317", "city": "\u79e6\u7687\u5c9b", "address": "\u79e6\u7687\u5c9b\u7ecf\u6d4e\u6280\u672f\u5f00\u53d1\u533a\u5ce8\u5d4b\u5c71\u5317\u8def\u65b0\u7ba1\u59d4\u4f1a\u897f\u4fa7", "phone_service": "0335-5999996", "phone_seal": "0335-5955555", "website": "qhdlzj", "phone": ""}, "523": {"id": "523", "name": "\u79e6\u7687\u5c9b\u9f99\u4e4b\u4fca\u9752\u9f99\u5206\u5e97", "lng": "118.915061", "lat": "40.423161", "province": "\u6cb3\u5317", "city": "\u79e6\u7687\u5c9b", "address": "\u79e6\u7687\u5c9b\u5e02\u9752\u9f99\u6ee1\u65cf\u81ea\u6cbb\u53bf\u9003\u519b\u5c71\u6751\u5357\u5e9e\u5927\u6c7d\u535a\u57ce", "phone_service": "0335-7996868", "phone_seal": "0335-7996969", "website": "qhdlzj_ql", "phone": ""}, "624": {"id": "624", "name": "\u79e6\u7687\u5c9b\u4e1c\u6e2f", "lng": "119.634824", "lat": "39.974624", "province": "\u6cb3\u5317", "city": "\u79e6\u7687\u5c9b", "address": "\u79e6\u7687\u5c9b\u6d77\u6e2f\u533a\u4e1c\u6e2f\u5317\u8def\u4e1c\u4fa7", "phone_service": "0335-8938888", "phone_seal": "0335-3589999", "website": "qhddg", "phone": ""}, "743": {"id": "743", "name": "\u79e6\u7687\u5c9b\u9f99\u4e4b\u4fca\u660c\u9ece\u5206\u5e97", "lng": "119.232188", "lat": "39.695551", "province": "\u6cb3\u5317", "city": "\u79e6\u7687\u5c9b", "address": "\u79e6\u7687\u5c9b\u5e02\u660c\u9ece\u53bf\u845b\u6761\u6e2f\u4e61\u89e3\u5b98\u8425\u6751\u660c\u9ec4\u516c\u8def\u5357\u4fa7\u5e9e\u5927\u6c7d\u8f66\u56ed\u5185", "phone_service": "0335-5965909", "phone_seal": "0335-5861555", "website": "qhdlzj_cl", "phone": ""}, "889": {"id": "889", "name": "\u79e6\u7687\u5c9b\u4e1c\u6e2f\u629a\u5b81\u5206\u5e97", "lng": "119.275275", "lat": "39.889523", "province": "\u6cb3\u5317", "city": "\u79e6\u7687\u5c9b", "address": "\u79e6\u7687\u5c9b\u5e02\u629a\u5b81\u533a\u629a\u5b81\u9547\u949f\u5e84\u6751\u73af\u57ce\u4e1c\u8def\u897f\u4fa7", "phone_service": "0335-8938888&lt;/br&gt;0335-8873333", "phone_seal": "0335-6010785", "website": "dgfnfd", "phone": ""}, "246": {"id": "246", "name": "\u90af\u90f8\u73af\u4e1c", "lng": "114.543899", "lat": "36.649888", "province": "\u6cb3\u5317", "city": "\u90af\u90f8", "address": "\u90af\u90f8\u5e02\u5f00\u53d1\u533a\u4e1c\u73af\u8def\u5317\u9996\u8def\u4e1c\u8054\u534e\u6c7d\u8f66\u5e7f\u573a", "phone_service": "0310-7122599", "phone_seal": "0310-7122666", "website": "hdjh", "phone": ""}, "532": {"id": "532", "name": "\u90af\u90f8\u5e9e\u5927\u9f99\u76db", "lng": "114.476424", "lat": "36.654989", "province": "\u6cb3\u5317", "city": "\u90af\u90f8", "address": "\u90af\u90f8\u5e02\u590d\u5174\u533a\u5317\u73af\u8def88\u53f7\u73b0\u4ee3(\u90af\u90f8)\u6c7d\u8d38\u57ce\u51853-8\u53f7", "phone_service": "0310-8198566", "phone_seal": "0310-8198558", "website": "hdpd", "phone": ""}, "248": {"id": "248", "name": "\u90a2\u53f0\u5a01\u9f99", "lng": "114.492259", "lat": "37.110637", "province": "\u6cb3\u5317", "city": "\u90a2\u53f0", "address": "\u90a2\u53f0\u5e02\u6865\u897f\u533a\u90ed\u5b88\u656c\u5927\u9053\u4e2d\u6bb5\u84dd\u6c60\u96c6\u56e2", "phone_service": "0319-2616677", "phone_seal": "0319-2616666", "website": "xtwl", "phone": ""}, "626": {"id": "626", "name": "\u90a2\u53f0\u4e30\u548c", "lng": "114.558343", "lat": "37.127822", "province": "\u6cb3\u5317", "city": "\u90a2\u53f0", "address": "\u90a2\u53f0\u5e02\u5317\u5916\u73af\u9f99\u5c97\u4e1c\u5927\u8857\u90a2\u53f0\u6c7d\u8f66\u57ce\u5185\uff08\u68ee\u6797\u516c\u56ed\u4e1c\u884c3.5\u516c\u91cc\u8def\u5317\uff09", "phone_service": "0319-5907999", "phone_seal": "0319-5250001", "website": "xtfh", "phone": ""}, "760": {"id": "760", "name": "\u90a2\u53f0\u5a01\u9f99\u90a2\u53f0\u5206\u516c\u53f8", "lng": "114.455760", "lat": "37.105331", "province": "\u6cb3\u5317", "city": "\u90a2\u53f0", "address": "\u90a2\u53f0\u5e02\u90a2\u5dde\u5927\u9053\u84dd\u6c60\u6c7d\u8f66\u7269\u6d41\u56ed\u5185", "phone_service": "0319-2139977", "phone_seal": "0319-2139966", "website": "xtwl_xt", "phone": ""}, "913": {"id": "913", "name": "\u90a2\u53f0\u5a01\u9f99\u5b81\u664b\u5206\u5e97 ", "lng": "114.908823", "lat": "37.634805", "province": "\u6cb3\u5317", "city": "\u90a2\u53f0", "address": "\u6cb3\u5317\u7701\u90a2\u53f0\u5e02\u5b81\u664b\u53bf\u897f\u4e09\u73af\u4e1c\u4fa7\u3001\u5e86\u548c\u8857\u5357\u4fa7", "phone_service": "0319-5821636", "phone_seal": "0319-5512277", "website": "xtwl_nj", "phone": ""}, "1030": {"id": "1030", "name": "\u90a2\u53f0\u4e30\u548c\u4efb\u53bf\u5206\u5e97", "lng": "114.769967", "lat": "37.174630", "province": "\u6cb3\u5317", "city": "\u90a2\u53f0", "address": "\u90a2\u53f0\u5e02\u4efb\u53bf\u6cb3\u5934\u534e\u6d77\u7269\u6d41\u56ed\u533a\u4e30\u548c\u4e30\u7530", "phone_service": "0319-7551999", "phone_seal": "0319-7553111", "website": "xtfh_rx", "phone": ""}, "244": {"id": "244", "name": "\u4fdd\u5b9a\u8f69\u5b87\u8bd7", "lng": "115.474904", "lat": "38.909528", "province": "\u6cb3\u5317", "city": "\u4fdd\u5b9a", "address": "\u4fdd\u5b9a\u5e02\u671d\u9633\u5317\u5927\u88571255\u53f7", "phone_service": "0312-3187715<br>0312-3180452", "phone_seal": "0312-3187711|0312-3187712", "website": "bdxys", "phone": ""}, "421": {"id": "421", "name": "\u4fdd\u5b9a\u901a\u6cf0", "lng": "115.500444", "lat": "38.823008", "province": "\u6cb3\u5317", "city": "\u4fdd\u5b9a", "address": "\u4fdd\u5b9a\u5e02\u5357\u4e8c\u73af\u8def2118\u53f7\uff08\u9ad8\u4fdd\u8def\u53e3\u897f\u884c100\u7c73\u8def\u5357\uff09", "phone_service": "0312-2128222", "phone_seal": "0312-2128111", "website": "bdtt", "phone": ""}, "988": {"id": "988", "name": "\u4fdd\u5b9a\u5e9e\u5927\u4e30\u715c", "lng": "115.492168", "lat": "38.758285", "province": "\u6cb3\u5317", "city": "\u4fdd\u5b9a", "address": "\u6cb3\u5317\u4fdd\u5b9a\u6e05\u82d1\u533a\u548c\u5e73\u5927\u8857363\u53f7", "phone_service": "0312-8090055", "phone_seal": "0312-8090058|0312-8090059", "website": "bdpd", "phone": ""}, "1053": {"id": "1053", "name": "\u6dbf\u5dde\u671d\u9633\u5609\u548c", "lng": "115.970510", "lat": "39.455293", "province": "\u6cb3\u5317", "city": "\u4fdd\u5b9a", "address": "\u6cb3\u5317\u7701\u6dbf\u5dde\u5e02107\u56fd\u9053\u957f\u57ce\u6865\u53571000\u7c73\u8def\u4e1c\u671d\u9633\u5609\u548c\u4e30\u7530\u6c7d\u8f66", "phone_service": "0312-3719880/3719887", "phone_seal": "0312-3719899", "website": "zzcyjh", "phone": ""}, "247": {"id": "247", "name": "\u5f20\u5bb6\u53e3\u534e\u94c3", "lng": "114.930536", "lat": "40.704413", "province": "\u6cb3\u5317", "city": "\u5f20\u5bb6\u53e3", "address": "\u5f20\u5bb6\u53e3\u5e02\u5ba3\u5316\u53bf\u6c99\u5cad\u5b50\u9547\u5c48\u5bb6\u5e84", "phone_service": "0313-5910999", "phone_seal": "0313-5910888", "website": "zjkhl", "phone": ""}, "862": {"id": "862", "name": "\u5f20\u5bb6\u53e3\u534e\u94c3\u5f20\u5317\u5206\u5e97", "lng": "114.708797", "lat": "41.153311", "province": "\u6cb3\u5317", "city": "\u5f20\u5bb6\u53e3", "address": "\u6cb3\u5317\u7701\u5f20\u5bb6\u53e3\u5e02\u5f20\u5317\u53bf\u987a\u8fbe\u6c7d\u914d\u57ce\u9662\u51851\u53f7\u697c", "phone_service": "0313-5856009", "phone_seal": "0313-5856006", "website": "zjkhl_zb", "phone": ""}, "914": {"id": "914", "name": "\u534e\u94c3\u8d64\u57ce\u5206\u516c\u53f8", "lng": "115.865958", "lat": "40.885324", "province": "\u6cb3\u5317", "city": "\u5f20\u5bb6\u53e3", "address": "\u5f20\u5bb6\u53e3\u8d64\u57ce\u53bf\u5f20\u5bb6\u7a91\u534e\u94c3\u4e30\u7530", "phone_service": "0313-5609998", "phone_seal": "0313-5609996", "website": "zjkhl_cc", "phone": ""}, "915": {"id": "915", "name": "\u5f20\u5bb6\u53e3\u534e\u94c3\u5ba3\u5316\u5206\u5e97", "lng": "115.037759", "lat": "40.617048", "province": "\u6cb3\u5317", "city": "\u5f20\u5bb6\u53e3", "address": "\u6cb3\u5317\u7701\u5f20\u5bb6\u53e3\u5e02\u5ba3\u5316\u533a\u67f3\u5ddd\u6cb3\u4e1c\u8def\u67f3\u6cc9\u516c\u5bd311\u53f7", "phone_service": "0313-5969988", "phone_seal": "0313-5969966 ", "website": "zjkhl_xh", "phone": ""}, "916": {"id": "916", "name": "\u5f20\u5bb6\u53e3\u534e\u94c3\u851a\u53bf\u5206\u5e97", "lng": "114.599257", "lat": "39.837615", "province": "\u6cb3\u5317", "city": "\u5f20\u5bb6\u53e3", "address": "\u5f20\u5bb6\u53e3\u5e02\u851a\u53bf\u5efa\u8bbe\u5357\u5927\u8857\u5e7f\u573a\u4e1c\u534e\u94c3\u4e30\u7530", "phone_service": "0313-5689998", "phone_seal": "0313-5689997", "website": "zjkhl_yx", "phone": ""}, "917": {"id": "917", "name": "\u534e\u94c3\u5e02\u533a\u5206\u516c\u53f8", "lng": "114.906374", "lat": "40.826967", "province": "\u6cb3\u5317", "city": "\u5f20\u5bb6\u53e3", "address": "\u5f20\u5bb6\u53e3\u5e02\u6865\u4e1c\u533a\u4e94\u4e00\u4e1c\u5927\u8857\u4e1c\u5c71\u62db\u5f85\u6240\u4ee5\u4e1c300\u7c73", "phone_service": "0313-5869006", "phone_seal": "0313-5869056", "website": "zjkhl_sq", "phone": ""}, "1046": {"id": "1046", "name": "\u5f20\u5bb6\u53e3\u534e\u94c3\u4e30\u7530\u6000\u6765\u5206\u5e97", "lng": "115.504694", "lat": "40.425977", "province": "\u6cb3\u5317", "city": "\u5f20\u5bb6\u53e3", "address": "\u5f20\u5bb6\u53e3\u5e02\u6000\u6765\u53bf\u6c99\u57ce\u9547\u897f\u5916\u73af110\u56fd\u9053\u987a\u6210\u68c0\u6d4b\u5382\u95e8\u53e3", "phone_service": "0313-5939998", "phone_seal": "0313-5939996", "website": "zjkhl_hl", "phone": ""}, "370": {"id": "370", "name": "\u627f\u5fb7\u5f18\u5180\u884c", "lng": "117.990576", "lat": "40.893421", "province": "\u6cb3\u5317", "city": "\u627f\u5fb7", "address": "\u627f\u5fb7\u5e02\u5f00\u53d1\u533a\u5927\u77f3\u5e99\u9547\u592a\u5e73\u5e84\u5e9e\u5927\u6c7d\u8f66\u57ce", "phone_service": "0314-2208222|0314-2200808", "phone_seal": "0314-2208800|0314-2201100", "website": "cdhjh", "phone": ""}, "245": {"id": "245", "name": "\u6ca7\u5dde\u8fd0\u6377", "lng": "116.902397", "lat": "38.296131", "province": "\u6cb3\u5317", "city": "\u6ca7\u5dde", "address": "\u6ca7\u5dde\u5e02\u65b0\u534e\u533a\u4e1c\u5916\u73af\u5357\u8def1\u53f7", "phone_service": "0317-3520268", "phone_seal": "0317-3520266|0317-3507777", "website": "czyj", "phone": ""}, "627": {"id": "627", "name": "\u6ca7\u5dde\u5e9e\u5927\u4e30\u81f4", "lng": "116.827624", "lat": "38.340626", "province": "\u6cb3\u5317", "city": "\u6ca7\u5dde", "address": "\u6ca7\u5dde\u5e02\u9ad8\u65b0\u6280\u672f\u4ea7\u4e1a\u5f00\u53d1\u533a\u897f\u5b89\u8def\u5357\u4fa725\u53f7", "phone_service": "03172176699", "phone_seal": "03172176688", "website": "czpdfz", "phone": ""}, "742": {"id": "742", "name": "\u6ca7\u5dde\u8fd0\u6377\u4efb\u4e18\u5206\u5e97", "lng": "116.126562", "lat": "38.743176", "province": "\u6cb3\u5317", "city": "\u6ca7\u5dde", "address": "\u6cb3\u5317\u7701\u6ca7\u5dde\u5e02\u4efb\u4e18\u5e02\u71d5\u5c71\u5317\u9053\u6797\u4e1a\u5c40\u8def\u53e3", "phone_service": "0317-2320002", "phone_seal": "0317-2320001", "website": "czyj_rq", "phone": ""}, "1050": {"id": "1050", "name": "\u6ca7\u5dde\u8054\u76db\u4e30\u7530", "lng": "116.905994", "lat": "38.350828", "province": "\u6cb3\u5317", "city": "\u6ca7\u5dde", "address": "\u6ca7\u5dde\u5e02\u65b0\u534e\u533a\u5c0f\u8d75\u5e84\u4e61\u8d75\u5b98\u5c6f\u6751\u957f\u82a6\u5317\u5927\u9053\u4e1c\u4fa7\uff08\u4f73\u5174\u7269\u6d41\u56ed\u5bf9\u9762\uff09", "phone_service": "0317-3091919", "phone_seal": "0317-3090909", "website": "czls", "phone": ""}, "1051": {"id": "1051", "name": "\u4efb\u4e18\u5e02\u8fd0\u8bda\u4e30\u7530", "lng": "116.127204", "lat": "38.749245", "province": "\u6cb3\u5317", "city": "\u6ca7\u5dde", "address": "\u4efb\u4e18\u5e02\u71d5\u5c71\u5317\u9053\u4e2d\u5efa\u4e03\u5c40\u5357\u8fd0\u8bda\u4e30\u75304S\u5e97", "phone_service": "0317-2320002", "phone_seal": "0317-2320001", "website": "rqyc", "phone": ""}, "250": {"id": "250", "name": "\u5eca\u574a\u5965\u5fb7\u884c", "lng": "116.769451", "lat": "39.580317", "province": "\u6cb3\u5317", "city": "\u5eca\u574a", "address": "\u5eca\u574a\u5e02\u7ecf\u6d4e\u6280\u672f\u5f00\u53d1\u533a\u56db\u6d77\u8def139\u53f7", "phone_service": "0316-6085188", "phone_seal": "0316-6085188", "website": "lfadh", "phone": ""}, "238": {"id": "238", "name": "\u8861\u6c34\u88d5\u534e", "lng": "115.738451", "lat": "37.728841", "province": "\u6cb3\u5317", "city": "\u8861\u6c34", "address": "\u8861\u6c34\u5e02\u6843\u57ce\u533a\u80dc\u5229\u4e1c\u8def1898\u53f7", "phone_service": "0318-6882333|", "phone_seal": "0318-6880688|13831895233  ", "website": "hsyh", "phone": ""}, "918": {"id": "918", "name": "\u8861\u6c34\u88d5\u534e\u5f00\u53d1\u533a\u5206\u5e97", "lng": "115.738422", "lat": "37.728699", "province": "\u6cb3\u5317", "city": "\u8861\u6c34", "address": "\u8861\u6c34\u5e02\u80dc\u5229\u4e1c\u8def1898\u53f7", "phone_service": "0318-6882333", "phone_seal": "15612800336", "website": "hsyh_cmdjzt", "phone": ""}, "285": {"id": "285", "name": "\u592a\u539f\u5927\u660c", "lng": "112.604838", "lat": "37.801030", "province": "\u5c71\u897f", "city": "\u592a\u539f", "address": "\u592a\u539f\u5e02\u592a\u6986\u8def\u4e0e\u5357\u4e2d\u73af\u6865\u897f\u5317\u89d2", "phone_service": "0351-8785888", "phone_seal": "0351-8785588", "website": "tydc", "phone": ""}, "287": {"id": "287", "name": "\u592a\u539f\u91d1\u8c37\u6e90", "lng": "112.592805", "lat": "37.843663", "province": "\u5c71\u897f", "city": "\u592a\u539f", "address": "\u592a\u539f\u5e02\u5efa\u8bbe\u5357\u8def365\u53f7\uff08\u5c71\u59c6\u58eb\u5317\u4fa7\uff09", "phone_service": "0351-7047773|0351-7047771", "phone_seal": "0351-7047775|0351-8335227", "website": "tyjgy", "phone": ""}, "506": {"id": "506", "name": "\u592a\u539f\u91d1\u8c37\u6e90\u53e4\u4ea4\u5206\u5e97", "lng": "112.164792", "lat": "37.921502", "province": "\u5c71\u897f", "city": "\u592a\u539f", "address": "\u53e4\u4ea4\u5e02\u6cb3\u53e3\u9547\u6cb3\u53e3\u6751\u5357\u82d1\u5c0f\u533a", "phone_service": "0351-7047771", "phone_seal": "0351-5161611", "website": "tyjgy_gj", "phone": ""}, "604": {"id": "604", "name": "\u592a\u539f\u5e9e\u5927\u4e30\u626c", "lng": "112.556981", "lat": "37.814507", "province": "\u5c71\u897f", "city": "\u592a\u539f", "address": "\u592a\u539f\u5e02\u4e07\u67cf\u6797\u533a\u65b0\u664b\u7960\u8def\u6c47\u8c6a\u65b0\u80fd\u6e90\u6c7d\u8f66\u57ce", "phone_service": "0351-7782211|0351-7782233", "phone_seal": "0351-5687666", "website": "typdfy", "phone": ""}, "895": {"id": "895", "name": "\u592a\u539f\u91d1\u8c37\u6e90\u6e05\u5f90\u5206\u5e97", "lng": "112.592422", "lat": "37.843694", "province": "\u5c71\u897f", "city": "\u592a\u539f", "address": "\u5c71\u897f\u7701\u592a\u539f\u5e02\u5efa\u8bbe\u5357\u8def365\u53f7", "phone_service": "0351-5965959", "phone_seal": "0351-5296788 ", "website": "tyjgy_qx", "phone": ""}, "964": {"id": "964", "name": "\u592a\u539f\u4e1c\u9f99 <em style='color:red;font-style:normal;'>\u3010\u6682\u505c\u670d\u52a1\u3011</em>", "lng": "112.568547", "lat": "37.760073", "province": "\u5c71\u897f", "city": "\u592a\u539f", "address": "\u592a\u539f\u5e02\u5c0f\u5e97\u533a\u5e73\u9633\u5357\u8def153\u53f7", "phone_service": "0351-8296333", "phone_seal": "0351-8596555", "website": "tydl", "phone": ""}, "293": {"id": "293", "name": "\u5927\u540c\u5408\u8fdc", "lng": "113.263876", "lat": "40.047674", "province": "\u5c71\u897f", "city": "\u5927\u540c", "address": "\u5927\u540c\u5e02\u5357\u73af\u897f\u5ef6\u5e9e\u5927\u6c7d\u8f66\u56ed\u533a\u4e1c\u4fa7", "phone_service": "0352-7151999", "phone_seal": "0352-7183666", "website": "dthy", "phone": ""}, "756": {"id": "756", "name": "\u5927\u540c\u5408\u8fdc\u5357\u90ca\u5206\u5e97", "lng": "113.323692", "lat": "40.069951", "province": "\u5c71\u897f", "city": "\u5927\u540c", "address": "\u5927\u540c\u5e02\u5357\u73af\u4e1c1\u53f7\uff08\u6b66\u8b66\u652f\u961f\u5bf9\u9762\uff09", "phone_service": "0352-7184666", "phone_seal": "0352-7183666", "website": "dthy_nj", "phone": ""}, "981": {"id": "981", "name": "\u5927\u540c\u51ef\u6cf0", "lng": "113.322663", "lat": "40.068937", "province": "\u5c71\u897f", "city": "\u5927\u540c", "address": "\u5927\u540c\u5e02\u57ce\u533a\u5357\u73af\u8def\u4e1c\u4e00\u53f7\u51ef\u6cf0\u4e30\u75304S\u5e97", "phone_service": "0352-5055661", "phone_seal": "0352-5056678", "website": "dtkt", "phone": ""}, "374": {"id": "374", "name": "\u9633\u6cc9\u8054\u534e", "lng": "113.628161", "lat": "37.870668", "province": "\u5c71\u897f", "city": "\u9633\u6cc9", "address": "\u9633\u6cc9\u5e02\u7ecf\u6d4e\u6280\u672f\u5f00\u53d1\u533a\u5927\u8fde\u4e1c\u8def", "phone_service": "0353-3317333", "phone_seal": "0353-3312333", "website": "yqlhft", "phone": ""}, "291": {"id": "291", "name": "\u957f\u6cbb\u5927\u660c", "lng": "113.089311", "lat": "36.185910", "province": "\u5c71\u897f", "city": "\u957f\u6cbb", "address": "\u957f\u6cbb\u5e02\u957f\u664b\u4e8c\u7ea7\u8def(\u5eb7\u5b9d\u96c6\u56e2\u5bf9\u9762)", "phone_service": "0355-3522777|0355-3522999", "phone_seal": "0355-3522222|0355-8866666", "website": "czdc", "phone": ""}, "290": {"id": "290", "name": "\u664b\u57ce\u534e\u6d0b", "lng": "112.886935", "lat": "35.505518", "province": "\u5c71\u897f", "city": "\u664b\u57ce", "address": "\u664b\u57ce\u5e02\u5f00\u53d1\u533a\u5170\u82b1\u8def\u5317\u6bb5", "phone_service": "0356-2181122", "phone_seal": "0356-6996686", "website": "jchy", "phone": ""}, "641": {"id": "641", "name": "\u6714\u5dde\u81f4\u8fdc", "lng": "112.385286", "lat": "39.337016", "province": "\u5c71\u897f", "city": "\u6714\u5dde", "address": "\u6714\u5dde\u5e02\u6714\u57ce\u533a\u7167\u4ec0\u516b\u5e84\u6751(\u897f\u73af\u8def\u4e0e\u5e02\u5e9c\u8857\u4ea4\u6c47\u53e3)", "phone_service": "0349-6688000", "phone_seal": "0349-6688666", "website": "sxszzy", "phone": ""}, "292": {"id": "292", "name": "\u664b\u4e2d\u822a\u7530", "lng": "112.687919", "lat": "37.731647", "province": "\u5c71\u897f", "city": "\u664b\u4e2d", "address": "\u664b\u4e2d\u5e02\u6c47\u901a\u5317\u8def387\u53f7", "phone_service": "0354-2462988", "phone_seal": "0354-2444888", "website": "jzlt", "phone": ""}, "639": {"id": "639", "name": "\u664b\u4e2d\u4e2d\u90e8", "lng": "112.750129", "lat": "37.662248", "province": "\u5c71\u897f", "city": "\u664b\u4e2d", "address": "\u664b\u4e2d\u662f\u6986\u6b21\u533a\u6c47\u901a\u5357\u8def\u4e1c\u4fa7(\u73af\u57ce\u5357\u8def\u4ee5\u5317400\u7c73)", "phone_service": "0354-3999297", "phone_seal": "0354-3998806", "website": "jzzb", "phone": ""}, "289": {"id": "289", "name": "\u8fd0\u57ce\u9ec4\u6cb3", "lng": "110.985129", "lat": "35.063767", "province": "\u5c71\u897f", "city": "\u8fd0\u57ce", "address": "\u5c71\u897f\u7701\u8fd0\u57ce\u5e02\u9ec4\u6cb3\u5927\u9053\u4e2d\u6bb5 \u4e00\u6c7d\u4e30\u7530\u8fd0\u57ce\u9ec4\u6cb34S\u5e97", "phone_service": "0359-2126111", "phone_seal": "0359-2122222", "website": "ychh", "phone": ""}, "640": {"id": "640", "name": "\u8fd0\u57ce\u9526\u534e", "lng": "111.033409", "lat": "35.069917", "province": "\u5c71\u897f", "city": "\u8fd0\u57ce", "address": "\u8fd0\u57ce\u5e02\u673a\u573a\u5927\u9053\u4e2d\u6bb5\u8def\u5357", "phone_service": "0359-3939999", "phone_seal": "0359-3936666", "website": "ycjh", "phone": ""}, "754": {"id": "754", "name": "\u8fd0\u57ce\u9ec4\u6cb3\u6cb3\u6d25\u5206\u5e97", "lng": "110.706171", "lat": "35.581404", "province": "\u5c71\u897f", "city": "\u8fd0\u57ce", "address": "\u5c71\u897f\u7701\u6cb3\u6d25\u5e02\u6c38\u5174\u897f\u8def\u5357", "phone_service": "0359-8711016", "phone_seal": "0359-8711008", "website": "ychh_hj", "phone": ""}, "416": {"id": "416", "name": "\u5ffb\u5dde\u5927\u660c", "lng": "112.732002", "lat": "38.497413", "province": "\u5c71\u897f", "city": "\u5ffb\u5dde", "address": "\u5ffb\u5dde\u5e02\u5ffb\u987f\u8def\u5927\u660c\u6c7d\u8d38\u56ed(\u5f00\u53d1\u533a\u6c7d\u8f66\u57ce)", "phone_service": "0350-3129000", "phone_seal": "0350-3128000", "website": "xzdc", "phone": ""}, "288": {"id": "288", "name": "\u4e34\u6c7e\u9526\u534e", "lng": "111.485155", "lat": "36.032598", "province": "\u5c71\u897f", "city": "\u4e34\u6c7e", "address": "\u4e34\u6c7e\u5e02\u5c27\u5e99\u9547\u5927\u97e9\u6751\u53e3", "phone_service": "0357-3166399", "phone_seal": "0357-3166388", "website": "lfjh", "phone": ""}, "755": {"id": "755", "name": "\u4e34\u6c7e\u9526\u534e\u5c6f\u91cc\u5206\u5e97", "lng": "111.485151", "lat": "36.032598", "province": "\u5c71\u897f", "city": "\u4e34\u6c7e", "address": "\u4e34\u6c7e\u5e02\u5c27\u90fd\u533a\u5c27\u5e99\u9547\u5927\u97e9\u6751\u53e3", "phone_service": "0357-3188889", "phone_seal": "0357-3188889", "website": "lfjh_tl", "phone": ""}, "362": {"id": "362", "name": "\u5415\u6881\u745e\u534e", "lng": "111.100490", "lat": "37.504255", "province": "\u5c71\u897f", "city": "\u5415\u6881", "address": "\u5415\u6881\u5e02\u79bb\u77f3\u533a\u9ad8\u901f\u897f\u53e3\u5f80\u897f100\u7c73(\u805a\u5bcc\u6c7d\u8d38\u56ed\u5185)", "phone_service": "0358-8337666", "phone_seal": "0358-8337888", "website": "llrh", "phone": ""}, "1": {"id": "1", "name": "\u547c\u548c\u6d69\u7279\u5eb7\u6cf0", "lng": "111.671593", "lat": "40.869280", "province": "\u5185\u8499\u53e4", "city": "\u547c\u548c\u6d69\u7279", "address": "\u547c\u548c\u6d69\u7279\u5e02\u65b0\u57ce\u533a\u547c\u4f26\u8d1d\u5c14\u5317\u8def3\u53f7(\u65b0\u57ce\u533a\u653f\u5e9c\u5317300\u7c73)", "phone_service": "0471-2217188|0471-2217288", "phone_seal": "0471-2217888|0471-2217666", "website": "hhhtkt", "phone": ""}, "319": {"id": "319", "name": "\u547c\u548c\u6d69\u7279\u91d1\u5ddd", "lng": "111.564867", "lat": "40.802788", "province": "\u5185\u8499\u53e4", "city": "\u547c\u548c\u6d69\u7279", "address": "\u547c\u548c\u6d69\u7279\u91d1\u5ddd\u5f00\u53d1\u533a\u6c47\u91d1\u8def\u4e1c\u4fa7\uff08\u91d1\u5ddd\u6587\u5316\u5e7f\u573a\u897f\u8f6c\u76d8\u531750\u7c73\uff09", "phone_service": "0471-8900055", "phone_seal": "0471-8900066", "website": "hhhtjc", "phone": ""}, "621": {"id": "621", "name": "\u547c\u548c\u6d69\u7279\u4e2d\u5347", "lng": "111.811373", "lat": "40.875324", "province": "\u5185\u8499\u53e4", "city": "\u547c\u548c\u6d69\u7279", "address": "\u547c\u548c\u6d69\u7279\u5e02\u8d5b\u7f55\u533a\u5df4\u5f66\u9547\u9ed1\u571f\u51f9\u6751\u5229\u4e30\u6c7d\u8f66\u56ed", "phone_service": "0471-3240033", "phone_seal": "0471-3240099", "website": "hhhtzs", "phone": ""}, "2": {"id": "2", "name": "\u5305\u5934\u4fe1\u5f97\u60e0", "lng": "109.878345", "lat": "40.650348", "province": "\u5185\u8499\u53e4", "city": "\u5305\u5934", "address": "\u5305\u5934\u5e02\u9752\u5c71\u533a\u53cb\u8c0a\u5927\u8857\u4e1c\u6bb5\u4e94\u4e00\u5c0f\u533a(31\u53f7)", "phone_service": "0472-5188001|0472-5188002", "phone_seal": "0472-5188011|0472-5188012", "website": "btxdh", "phone": ""}, "620": {"id": "620", "name": "\u5305\u5934\u4e2d\u5347 <em style='color:red;font-style:normal;'>\u3010\u6682\u505c\u670d\u52a1\u3011</em>", "lng": "109.956155", "lat": "40.593901", "province": "\u5185\u8499\u53e4", "city": "\u5305\u5934", "address": "\u5185\u8499\u53e4\u81ea\u6cbb\u533a\u5305\u5934\u5e02\u7a00\u571f\u9ad8\u65b0\u533a\u6ee8\u6cb3\u65b0\u533a210\u56fd\u9053\u4e1c\u4fa7\uff0c\u673a\u573a\u9ad8\u901f\u5317\u4fa7\uff08\u5229\u4e30\u6c7d\u8f66\u56ed\uff0c\u6c5f\u6dee\u6c7d\u8f664S\u5e97\u4e1c200\u7c73\uff09", "phone_service": "0472-6191177", "phone_seal": "0472-6191188", "website": "btzs", "phone": ""}, "453": {"id": "453", "name": "\u4e4c\u6d77\u5e9e\u5927\u6cd3\u7a0b", "lng": "106.844407", "lat": "39.706171", "province": "\u5185\u8499\u53e4", "city": "\u4e4c\u6d77", "address": "\u4e4c\u6d77\u5e02\u6d77\u52c3\u6e7e\u533a\u6797\u836b\u5927\u9053\u4e0e\u6c83\u91ce\u8def\u4ea4\u53c9\u53e3\u4e1c\u5357\u89d2", "phone_service": "0473-3017777", "phone_seal": "0473-3018888", "website": "whpd", "phone": ""}, "464": {"id": "464", "name": "\u8d64\u5cf0\u5229\u4e30", "lng": "118.922561", "lat": "42.338573", "province": "\u5185\u8499\u53e4", "city": "\u8d64\u5cf0", "address": "\u8d64\u5cf0\u5e02\u7ea2\u5c71\u533a\u7269\u6d41\u56ed\u533a2\u5e62\uff08\u8fbd\u6cb3\u8def\u897f\u4e94\u8857\uff09\u79d1\u76ee\u4e09\u8003\u573a\u5229\u4e30\u65b0\u56ed\u533a\u9662\u5185", "phone_service": "0476-8771650|0476-8771692", "phone_seal": "0476-8772123|0476-8772321", "website": "cfkt", "phone": ""}, "588": {"id": "588", "name": "\u8d64\u5cf0\u540d\u6d3e", "lng": "118.948184", "lat": "42.315618", "province": "\u5185\u8499\u53e4", "city": "\u8d64\u5cf0", "address": "\u5185\u8499\u53e4\u81ea\u6cbb\u533a\u8d64\u5cf0\u5e02\u7ea2\u5c71\u533a\u6865\u5317\u7269\u6d41\u56ed\u533a\u8d64\u9521\u8def80\u53f7", "phone_service": "0476-8872345", "phone_seal": "0476-8662345", "website": "cfmp", "phone": ""}, "417": {"id": "417", "name": "\u901a\u8fbd\u5ddd\u8fbe", "lng": "122.227555", "lat": "43.650309", "province": "\u5185\u8499\u53e4", "city": "\u901a\u8fbd", "address": "\u901a\u8fbd\u5e02\u7ecf\u6d4e\u5f00\u53d1\u533a\u745e\u4e30\u6c7d\u8f66\u57ce  \u521b\u4e1a\u5927\u9053\u4e0e\u5174\u5de5\u5927\u8857\u4ea4\u6c47\u5904", "phone_service": "0475-8623337", "phone_seal": "0475-8623336", "website": "tlcd", "phone": ""}, "622": {"id": "622", "name": "\u970d\u6797\u90ed\u52d2\u8fd0\u901a\u5b8f\u4e1a", "lng": "119.668930", "lat": "45.468381", "province": "\u5185\u8499\u53e4", "city": "\u901a\u8fbd", "address": "\u970d\u6797\u90ed\u52d2\u5e02304\u56fd\u9053\u897f\u4fa7\u5de5\u4e1a\u56ed\u533a\u5317\u4fa7", "phone_service": "0475-7921777|0475-7823029", "phone_seal": "0475-7967777", "website": "hlglythy", "phone": ""}, "3": {"id": "3", "name": "\u9102\u5c14\u591a\u65af\u5317\u82d1", "lng": "110.113098", "lat": "39.793964", "province": "\u5185\u8499\u53e4", "city": "\u9102\u5c14\u591a\u65af", "address": "\u9102\u5c14\u591a\u65af\u5e02\u4e1c\u80dc\u533a\u5854\u62c9\u58d5\u9547\u5305\u5e9c\u6c7d\u8f66\u57ceN\u5ea7", "phone_service": "0477-8101616|0477-8101212", "phone_seal": "0477-8101288|0477-8101583", "website": "byft", "phone": ""}, "546": {"id": "546", "name": "\u9102\u5c14\u591a\u65af\u5eb7\u6cf0", "lng": "110.044784", "lat": "39.814011", "province": "\u5185\u8499\u53e4", "city": "\u9102\u5c14\u591a\u65af", "address": "\u9102\u5c14\u591a\u65af\u5e02\u4e1c\u80dc\u533a\u4e4c\u5ba1\u4e1c\u8857\u4e1c\u8054\u4e2d\u5b66\u5411\u4e1c2\u516c\u91cc\u5904\uff08\u52a0\u6c14\u7ad9\u65c1)", "phone_service": "0477-8103567|0477-8103289\uff08\u4f20\u771f\uff09|", "phone_seal": "15661498126|0477-8103789", "website": "erdstk", "phone": ""}, "515": {"id": "515", "name": "\u547c\u4f26\u8d1d\u5c14\u5e9e\u5927\u9f99\u76db", "lng": "119.781300", "lat": "49.247630", "province": "\u5185\u8499\u53e4", "city": "\u547c\u4f26\u8d1d\u5c14", "address": "\u5185\u8499\u53e4\u547c\u4f26\u8d1d\u5c14\u5e02\u6d77\u62c9\u5c14\u533a\u5c3c\u5c14\u57fa\u8def87\u53f7(\u5e9e\u5927\u6c7d\u8d38\u56ed\u533a)", "phone_service": "0470-8578222", "phone_seal": "0470-8558111", "website": "pdls", "phone": ""}, "623": {"id": "623", "name": "\u5df4\u5f66\u6dd6\u5c14\u5ddd\u6cb3", "lng": "107.516431", "lat": "40.813939", "province": "\u5185\u8499\u53e4", "city": "\u5df4\u5f66\u6dd6\u5c14", "address": "\u5185\u8499\u53e4\u81ea\u6cbb\u533a\u5df4\u5f66\u6dd6\u5c14\u7ecf\u6d4e\u6280\u672f\u5f00\u53d1\u533a\u5bcc\u6e90\u5317\u8def", "phone_service": "0478-7861777", "phone_seal": "0478-7866777", "website": "byne", "phone": ""}, "576": {"id": "576", "name": "\u5174\u5b89\u76df\u9f99\u665f", "lng": "121.953200", "lat": "46.079089", "province": "\u5185\u8499\u53e4", "city": "\u5174\u5b89\u76df", "address": "\u5185\u8499\u53e4\u5174\u5b89\u76df\u79d1\u53f3\u524d\u65d7\u5de5\u4e1a\u56ed\u533a\u5929\u9a84\u8def2\u53f7\u946b\u534e\u7389\u9f99\u665f\u4e30\u75304S\u5e97", "phone_service": "0482-8395999", "phone_seal": "0482-8395666", "website": "xamls", "phone": ""}, "1045": {"id": "1045", "name": "\u5174\u5b89\u76df\u9f99\u665f\u79d1\u53f3\u4e2d\u65d7\u5206\u5e97", "lng": "121.989243", "lat": "46.075205", "province": "\u5185\u8499\u53e4", "city": "\u5174\u5b89\u76df", "address": "\u5185\u8499\u53e4\u5174\u5b89\u76df\u79d1\u5c14\u6c81\u53f3\u7ffc\u4e2d\u65d7\u5df4\u5f66\u547c\u8212\u9547\u524d\u5fb7\u95e8\u5c45\u59d4\u4f1a12\u8857", "phone_service": "0482-4661333", "phone_seal": "0482-4697777\u30010482-4795555", "website": "xamls_kyzq", "phone": ""}, "514": {"id": "514", "name": "\u9521\u76df\u5229\u4e30", "lng": "116.080013", "lat": "43.958236", "province": "\u5185\u8499\u53e4", "city": "\u9521\u6797\u6d69\u7279", "address": "\u9521\u6797\u6d69\u7279\u5e02\u7ecf\u6d4e\u5f00\u53d1\u533a\u706b\u8f66\u7ad9\u5317500\u7c73\u5229\u4e30\u6c7d\u8f66\u56ed\u533a", "phone_service": "0479-6919333", "phone_seal": "0479-6919990", "website": "xmdc", "phone": ""}, "1031": {"id": "1031", "name": "\u4e4c\u6d77\u5e9e\u5927\u6cd3\u7a0b\u963f\u62c9\u5584\u76df\u5206\u5e97", "lng": "105.677619", "lat": "38.841624", "province": "\u5185\u8499\u53e4", "city": "\u963f\u62c9\u5584\u76df", "address": "\u5185\u8499\u53e4\u963f\u62c9\u5584\u76df\u5de6\u65d7\u4e4c\u5df4\u8def\u53e3\u91d1\u5408\u4f17\u6c7d\u8f66\u57ce\u4e30\u7530\u5e97", "phone_service": "0483-8597885", "phone_seal": "0483-8597888", "website": "pdhc_alsm", "phone": ""}, "22": {"id": "22", "name": "\u6c88\u9633\u534e\u901a", "lng": "123.506216", "lat": "41.821187", "province": "\u8fbd\u5b81", "city": "\u6c88\u9633", "address": "\u6c88\u9633\u5e02\u5927\u4e1c\u533a\u4e1c\u9675\u897f\u8def2\u53f7(\u6c88\u9633\u6c88\u6d77\u70ed\u7535\u5382\u5bf9\u9762)", "phone_service": "024-88426688|024-88421688", "phone_seal": "024-88458588|024-88458577", "website": "syht", "phone": ""}, "23": {"id": "23", "name": "\u6c88\u9633\u4e8e\u6d2a", "lng": "123.290265", "lat": "41.800777", "province": "\u8fbd\u5b81", "city": "\u6c88\u9633", "address": "\u6c88\u9633\u5e02\u4e8e\u6d2a\u533a\u6c88\u5927\u8def83\u53f7", "phone_service": "024-85831088|024-25310707", "phone_seal": "024-85830008|024-85831118", "website": "syyh", "phone": ""}, "24": {"id": "24", "name": "\u6c88\u9633\u91d1\u5eca", "lng": "123.467844", "lat": "41.729985", "province": "\u8fbd\u5b81", "city": "\u6c88\u9633", "address": "\u6c88\u9633\u5e02\u6d51\u5357\u65b0\u533a\u6c47\u6cc9\u8def88\u53f7", "phone_service": "024-23818666", "phone_seal": "024-23812381", "website": "syjl", "phone": ""}, "25": {"id": "25", "name": "\u6c88\u9633\u94c1\u897f\u534e\u901a", "lng": "123.394852", "lat": "41.807643", "province": "\u8fbd\u5b81", "city": "\u6c88\u9633", "address": "\u6c88\u9633\u5e02\u94c1\u897f\u533a\u5317\u4e8c\u4e1c\u8def17-4\u53f7", "phone_service": "024-25111999|024-25111509", "phone_seal": "024-25111666|024-25111777", "website": "sytxht", "phone": ""}, "406": {"id": "406", "name": "\u6c88\u9633\u4e8e\u6d2a\u65b0\u6c11\u5206\u5e97", "lng": "122.861766", "lat": "41.976233", "province": "\u8fbd\u5b81", "city": "\u6c88\u9633", "address": "\u65b0\u6c11\u5e02\u516b\u91cc\u94fa\u79c1\u8425\u4f01\u4e1a\u6751", "phone_service": "024-27519990", "phone_seal": "024-27519991", "website": "syyh_xm", "phone": ""}, "618": {"id": "618", "name": "\u6c88\u9633\u4e2d\u5347", "lng": "123.382215", "lat": "41.697549", "province": "\u8fbd\u5b81", "city": "\u6c88\u9633", "address": "\u6c88\u9633\u5e02\u548c\u5e73\u533a\u80dc\u5229\u5357\u5927\u8857\u4e5d\u6d32\u6e7e\u666f\u6c47\u5357\u884c2\u516c\u91cc(165\u516c\u4ea4\u8f66\u52a0\u5de5\u5382\u5bbf\u820d\u7ad9\u70b9)", "phone_service": "024-31041188", "phone_seal": "024-31805111", "website": "syzs", "phone": ""}, "946": {"id": "946", "name": "\u6c88\u9633\u4e2d\u6668\u5148\u950b", "lng": "123.448591", "lat": "41.856839", "province": "\u8fbd\u5b81", "city": "\u6c88\u9633", "address": "\u6c88\u9633\u5e02\u7687\u59d1\u533a\u91d1\u5c71\u8def91\u53f7", "phone_service": "024-86875000", "phone_seal": "024-86527888", "website": "syzcxf", "phone": ""}, "4": {"id": "4", "name": "\u5927\u8fde\u4e2d\u5347", "lng": "121.622581", "lat": "39.022188", "province": "\u8fbd\u5b81", "city": "\u5927\u8fde", "address": "\u5927\u8fde\u5e02\u7518\u4e95\u5b50\u533a\u534e\u5317\u8def759\u53f7", "phone_service": "0411-39792277", "phone_seal": "0411-39790222|0411-39792282", "website": "dlzs", "phone": ""}, "5": {"id": "5", "name": "\u5927\u8fde\u673a\u573a\u8fce\u5bbe\u4e2d\u5347", "lng": "121.556681", "lat": "38.963855", "province": "\u8fbd\u5b81", "city": "\u5927\u8fde", "address": "\u5927\u8fde\u5e02\u7518\u4e95\u5b50\u533a\u673a\u573a\u524d\u8679\u6e2f\u8def13\u53f7", "phone_service": "0411-39790333", "phone_seal": "18624499559", "website": "dlybzs", "phone": ""}, "6": {"id": "6", "name": "\u5927\u8fde\u88d5\u5fb7", "lng": "121.584149", "lat": "38.969546", "province": "\u8fbd\u5b81", "city": "\u5927\u8fde", "address": "\u5927\u8fde\u5e02\u7518\u4e95\u5b50\u533a\u5c71\u4e1c\u8def80-1\u53f7", "phone_service": "0411-39505501<br>0411-39505507", "phone_seal": "0411-39505500|0411-39505555", "website": "dlyd", "phone": ""}, "7": {"id": "7", "name": "\u5927\u8fde\u65b0\u76db\u8363", "lng": "39.078570", "lat": "121.769821", "province": "\u8fbd\u5b81", "city": "\u5927\u8fde", "address": "\u5927\u8fde\u5e02\u91d1\u5dde\u533a\u4e94\u4e00\u8def999\u53f7", "phone_service": "0411-87851121", "phone_seal": "4009317302", "website": "dlxsr", "phone": ""}, "368": {"id": "368", "name": "\u5927\u8fde\u4fdd\u7a0e\u533a\u534e\u901a", "lng": "121.845887", "lat": "39.050164", "province": "\u8fbd\u5b81", "city": "\u5927\u8fde", "address": "\u5927\u8fde\u4fdd\u7a0e\u533a\u62a4\u6e2f\u8def42\u53f7", "phone_service": "0411-88018333|15542599002", "phone_seal": "0411-87327979|0411-87588101", "website": "dlbsqht", "phone": ""}, "833": {"id": "833", "name": "\u5927\u8fde\u4fdd\u7a0e\u533a\u534e\u901a\u4e2d\u5c71\u5206\u5e97", "lng": "121.674368", "lat": "38.925646", "province": "\u8fbd\u5b81", "city": "\u5927\u8fde", "address": "\u5927\u8fde\u5e02\u4e2d\u5c71\u533a\u9c81\u8fc5\u8def153-1\u53f7", "phone_service": "0411-82951177", "phone_seal": "0411-82950066", "website": "dlbsqht_zs", "phone": ""}, "982": {"id": "982", "name": "\u5927\u8fde\u8363\u8f89\u901a\u8fbe", "lng": "122.918690", "lat": "39.728180", "province": "\u8fbd\u5b81", "city": "\u5927\u8fde", "address": "\u5e84\u6cb3\u5e02\u4e09\u73af\u5927\u8857\u6c7d\u8d38\u96c6\u56e2\u9662\u5185\uff08\u897f\u738b\u5c9a\u897f437\u7c73\uff09", "phone_service": "0411-86076777", "phone_seal": "0411-86076888", "website": "rhtd", "phone": ""}, "28": {"id": "28", "name": "\u978d\u5c71\u5317\u65b9", "lng": "122.952818", "lat": "41.148735", "province": "\u8fbd\u5b81", "city": "\u978d\u5c71", "address": "\u978d\u5c71\u5e02\u5343\u5c71\u533a\u897f\u73af\u8def76\u53f7", "phone_service": "0412-2530099", "phone_seal": "0412-2530088", "website": "asbf", "phone": ""}, "615": {"id": "615", "name": "\u6d77\u57ce\u5357\u73af", "lng": "122.731800", "lat": "40.838701", "province": "\u8fbd\u5b81", "city": "\u978d\u5c71", "address": "\u6d77\u57ce\u5e02\u6bdb\u7941\u9547\u5c71\u540e\u675138\u53f7\u6c34\u9e2d\u5c6f\u7acb\u4ea4\u6865\u4e1c\u8d70100\u7c73", "phone_service": "0412--3425111", "phone_seal": "0412-3405111", "website": "hcnh", "phone": ""}, "947": {"id": "947", "name": "\u978d\u5c71\u4e5d\u5dde", "lng": "123.058820", "lat": "41.183597", "province": "\u8fbd\u5b81", "city": "\u978d\u5c71", "address": "\u8fbd\u5b81\u7701\u978d\u5c71\u5e02\u7acb\u5c71\u533a\u80dc\u5229\u5317\u8def812\u53f7", "phone_service": "0412-2564444", "phone_seal": "0412-2564999", "website": "asjz", "phone": ""}, "495": {"id": "495", "name": "\u629a\u987a\u6c88\u629a", "lng": "123.906981", "lat": "41.892179", "province": "\u8fbd\u5b81", "city": "\u629a\u987a", "address": "\u629a\u987a\u7ecf\u6d4e\u5f00\u53d1\u533a\u6625\u534e\u8def26\u53f7", "phone_service": "024-56441111", "phone_seal": "024-56635678  53828888", "website": "fssf", "phone": ""}, "616": {"id": "616", "name": "\u672c\u6eaa\u91d1\u5eca", "lng": "123.736258", "lat": "41.315255", "province": "\u8fbd\u5b81", "city": "\u672c\u6eaa", "address": "\u8fbd\u5b81\u7701\u672c\u6eaa\u5e02\u6eaa\u6e56\u533a\u5f69\u5c6f\u5317\u8def26\u53f7", "phone_service": "0414-2996666", "phone_seal": "0414-2998888", "website": "bxjl", "phone": ""}, "9": {"id": "9", "name": "\u4e39\u4e1c\u5f18\u6cf0", "lng": "124.351013", "lat": "40.131154", "province": "\u8fbd\u5b81", "city": "\u4e39\u4e1c", "address": "\u4e39\u4e1c\u5e02\u632f\u5174\u533a\u82b1\u56ed\u8def108\u53f7(\u91d1\u4e1c\u52a0\u6cb9\u7ad9\u5bf9\u9762)", "phone_service": "0415-2159111|0415-2159333", "phone_seal": "0415-2152345", "website": "ddht", "phone": ""}, "538": {"id": "538", "name": "\u4e39\u4e1c\u5f18\u6cf0\u4e1c\u6e2f\u5206\u5e97", "lng": "124.171384", "lat": "39.917224", "province": "\u8fbd\u5b81", "city": "\u4e39\u4e1c", "address": "\u4e1c\u6e2f\u5e02\u6c5f\u6d77\u660e\u73e0\u4e39\u4e1c\u65b9\u5411\u524d\u884c300\u7c73(\u8fdb\u6e2f\u8def\u8def\u53e3\u4e07\u987a\u6c7d\u8f66\u57ce)", "phone_service": "0415-6622678", "phone_seal": "0415-6622567", "website": "ddht_dg", "phone": ""}, "27": {"id": "27", "name": "\u9526\u5dde\u5ddd\u8fbe", "lng": "121.142910", "lat": "41.087294", "province": "\u8fbd\u5b81", "city": "\u9526\u5dde", "address": "\u9526\u5dde\u5e02\u9ad8\u65b0\u533a\u5357\u5e7f\u8def216\u53f7", "phone_service": "0416-2667111|0416-2667113", "phone_seal": "0416-2667075|0416-2667088", "website": "jzcd", "phone": ""}, "8": {"id": "8", "name": "\u8425\u53e3\u7ea2\u8fd0", "lng": "122.282190", "lat": "40.673282", "province": "\u8fbd\u5b81", "city": "\u8425\u53e3", "address": "\u8425\u53e3\u5e02\u7ad9\u524d\u533a\u6e24\u6d77\u5927\u8857\u4e1c\u6bb589\u53f7", "phone_service": "0417-2853333", "phone_seal": "0417-2828888", "website": "ykhy", "phone": ""}, "619": {"id": "619", "name": "\u8425\u53e3\u5ddd\u8fbe\u7ea2\u8fd0", "lng": "122.116392", "lat": "40.214913", "province": "\u8fbd\u5b81", "city": "\u8425\u53e3", "address": "\u8fbd\u5b81\u7701 \u8425\u53e3\u5e02\u9c85\u9c7c\u5708\u533a\u718a\u5cb3\u9ad8\u901f\u53e3\uff08\u5927\u8fde\u65b9\u5411\uff09\u5bf9\u8fc7200\u7c73", "phone_service": "0417-5541111", "phone_seal": "0417\u20145549999", "website": "ykcdhy", "phone": ""}, "930": {"id": "930", "name": "\u8425\u53e3\u7ea2\u8fd0\u5927\u77f3\u6865\u5206\u5e97", "lng": "122.536749", "lat": "40.607977", "province": "\u8fbd\u5b81", "city": "\u8425\u53e3", "address": "\u8fbd\u5b81\u7701\u8425\u53e3\u5e02\u5927\u77f3\u6865\u5357\u5916\u73af\u7ea2\u8fd0\u4e30\u75304S\u5e97\uff08\u5e7f\u8054\u5bb6\u5c45\u4e1c\u884c500\u7c73\u8def\u5317\uff09", "phone_service": "0417-5283333", "phone_seal": "0417-5283333", "website": "ykhy_dsq", "phone": ""}, "357": {"id": "357", "name": "\u961c\u65b0\u5168\u6cf0", "lng": "121.614599", "lat": "42.001293", "province": "\u8fbd\u5b81", "city": "\u961c\u65b0", "address": "\u961c\u65b0\u5e02\u7ecf\u6d4e\u5f00\u53d1\u533a\u6c99\u6d77\u6865\u897f300\u7c73", "phone_service": "0418-2968777", "phone_seal": "0418-2968666", "website": "fxqt", "phone": ""}, "408": {"id": "408", "name": "\u8fbd\u9633\u7e41\u8363", "lng": "123.135252", "lat": "41.300704", "province": "\u8fbd\u5b81", "city": "\u8fbd\u9633", "address": "\u8fbd\u9633\u5e02\u592a\u5b50\u6cb3\u533a\u7e41\u8363\u8def\u4e2d\u6bb5\u4e00\u6c7d\u4e30\u75304S\u5e97(\u56db\u9662\u897f20\u7c73)", "phone_service": "0419-2995009&lt;br /&gt;", "phone_seal": "0419-2995555&lt;br |&gt;0419-2392777", "website": "lyfr", "phone": ""}, "26": {"id": "26", "name": "\u76d8\u9526\u5229\u661f", "lng": "122.056709", "lat": "41.158207", "province": "\u8fbd\u5b81", "city": "\u76d8\u9526", "address": "\u76d8\u9526\u5e02\u5174\u9686\u53f0\u533a\u8fbd\u6cb3\u4e2d\u8def\u57ce\u4e2d\u82b1\u56ed\u5317300\u7c73", "phone_service": "0427-2875333", "phone_seal": "0427-2213888", "website": "pjlx", "phone": ""}, "617": {"id": "617", "name": "\u76d8\u9526\u4f2f\u9a90", "lng": "122.042434", "lat": "41.095092", "province": "\u8fbd\u5b81", "city": "\u76d8\u9526", "address": "\u76d8\u9526\u5e02\u7530\u5bb6\u9547\u4e2d\u534e\u4e2d\u8def\u9a6c\u5708\u5b50\u8def\u53e3\u5357200\u7c73", "phone_service": "0427-8696789", "phone_seal": "0427-8600000", "website": "pjbq", "phone": ""}, "478": {"id": "478", "name": "\u94c1\u5cad\u91d1\u60e0\u6e90", "lng": "123.772957", "lat": "42.222255", "province": "\u8fbd\u5b81", "city": "\u94c1\u5cad", "address": "\u94c1\u5cad\u7ecf\u6d4e\u5f00\u53d1\u533a\u673a\u52a8\u8f66\u4ea4\u6613\u5e02\u573a\u56ed\u533a\u5e3d\u5c71\u88571\u53f7", "phone_service": "024-74292960", "phone_seal": "024-74291666", "website": "tljhy", "phone": ""}, "349": {"id": "349", "name": "\u671d\u9633\u5ddd\u8fbe", "lng": "120.438028", "lat": "41.542139", "province": "\u8fbd\u5b81", "city": "\u671d\u9633", "address": "\u671d\u9633\u5e02\u53cc\u5854\u533a\u9f99\u5c71\u8857\u56db\u6bb5824\u53f7", "phone_service": "0421-3303666<br>0421-3303333", "phone_seal": "0421-3302233|0421-3302244", "website": "cycd", "phone": ""}, "1040": {"id": "1040", "name": "\u671d\u9633\u7acb\u8fbe", "lng": "120.396619", "lat": "41.559474", "province": "\u8fbd\u5b81", "city": "\u671d\u9633", "address": "\u8fbd\u5b81\u7701\u671d\u9633\u5e02\u9f99\u57ce\u533a\u897f\u5927\u8425\u5b50\u9547\u5317\u5c71\u675144C\u53f7", "phone_service": "0421-7172221", "phone_seal": "0421-7172211", "website": "cyld", "phone": ""}, "29": {"id": "29", "name": "\u846b\u82a6\u5c9b\u4e8e\u6d2a\u5ddd\u8fbe", "lng": "120.863448", "lat": "40.731435", "province": "\u8fbd\u5b81", "city": "\u846b\u82a6\u5c9b", "address": "\u846b\u82a6\u5c9b\u5e02\u9f99\u6e2f\u533a\u9f99\u6e7e\u5927\u885760\u53f7", "phone_service": "0429-3183624|0429-3183540", "phone_seal": "0429-3187111|0429-3187222", "website": "hldyhcd", "phone": ""}, "735": {"id": "735", "name": "\u846b\u82a6\u5c9b\u4e8e\u6d2a\u5ddd\u8fbe\u7ee5\u4e2d\u5206\u5e97", "lng": "120.304876", "lat": "40.320613", "province": "\u8fbd\u5b81", "city": "\u846b\u82a6\u5c9b", "address": "\u846b\u82a6\u5c9b\u5e02\u7ee5\u4e2d\u53bf\u5927\u53f0\u5c71\u679c\u6811\u519c\u573a\u897f\u4fa7\u5317\u5916\u73af\u4e1c\u4fa7", "phone_service": "0429-6781888", "phone_seal": "0429-6533555", "website": "hldyhcd_sz", "phone": ""}, "10": {"id": "10", "name": "\u957f\u6625\u4e1c\u73af", "lng": "125.401501", "lat": "43.864766", "province": "\u5409\u6797", "city": "\u957f\u6625", "address": "\u957f\u6625\u7ecf\u6d4e\u6280\u672f\u5f00\u53d1\u533a\u6d66\u4e1c\u8def2409\u53f7", "phone_service": "0431-84639226|0431-84639640", "phone_seal": "0431-84641199|0431-84677000", "website": "ccdh", "phone": ""}, "11": {"id": "11", "name": "\u957f\u6625\u534e\u9633", "lng": "125.278763", "lat": "43.882570", "province": "\u5409\u6797", "city": "\u957f\u6625", "address": "\u957f\u6625\u5e02\u6c7d\u8d38\u5f00\u53d1\u533a\u6b63\u9633\u88573052\u53f7", "phone_service": "0431-87646111|0431-87645111", "phone_seal": "0431-87646000", "website": "cchy", "phone": ""}, "12": {"id": "12", "name": "\u957f\u6625\u91d1\u5c71", "lng": "125.252678", "lat": "43.822194", "province": "\u5409\u6797", "city": "\u957f\u6625", "address": "\u957f\u6625\u9ad8\u65b0\u533a\u851a\u5c71\u8def3939\u53f7", "phone_service": "0431-85524999|0431-85557999", "phone_seal": "0431-85512555|0431-85802222", "website": "ccjs", "phone": ""}, "585": {"id": "585", "name": "\u957f\u6625\u4e00\u6c7d\u670d\u8d38", "lng": "125.393311", "lat": "43.773690", "province": "\u5409\u6797", "city": "\u957f\u6625", "address": "\u957f\u6625\u5e02\u51c0\u6708\u5f00\u53d1\u533a\u751f\u6001\u4e1c\u8857\u4e0e\u5929\u6cfd\u8def\u4ea4\u6c47", "phone_service": "0431-81872300", "phone_seal": "0431-81872333", "website": "chyqfm", "phone": ""}, "13": {"id": "13", "name": "\u5409\u6797\u745e\u5b5a", "lng": "126.588231", "lat": "43.812799", "province": "\u5409\u6797", "city": "\u5409\u6797", "address": "\u5409\u6797\u5e02\u9ad8\u65b0\u533a\u5357\u5c71\u88572488\u53f7(\u5f69\u8679\u6865\u94a2\u6750\u5e02\u573a\u5bf9\u9762)", "phone_service": "0432-66569999", "phone_seal": "0432-65086666", "website": "jlrf", "phone": ""}, "14": {"id": "14", "name": "\u5409\u6797\u795e\u534e", "lng": "126.562735", "lat": "43.814391", "province": "\u5409\u6797", "city": "\u5409\u6797", "address": "\u5409\u6797\u5e02\u9ad8\u65b0\u533a\u6df1\u5733\u8857103\u53f7", "phone_service": "0432-64630888", "phone_seal": "0432-64638888", "website": "jlsh", "phone": ""}, "613": {"id": "613", "name": "\u56db\u5e73\u957f\u4e45\u535a\u4e30", "lng": "124.462838", "lat": "43.132637", "province": "\u5409\u6797", "city": "\u56db\u5e73", "address": "\u5409\u6797\u7701\u56db\u5e73\u5e02\u94c1\u4e1c\u533a\u7ecf\u6d4e\u5f00\u53d1\u5927\u8def5282\u53f7", "phone_service": "0434-3363555", "phone_seal": "0434-3363666", "website": "spcjbf", "phone": ""}, "614": {"id": "614", "name": "\u8fbd\u6e90\u9f99\u798f", "lng": "125.202857", "lat": "42.871210", "province": "\u5409\u6797", "city": "\u8fbd\u6e90", "address": "\u8fbd\u6e90\u5e02\u8f66\u7ba1\u6240\uff083\u8def\u8f66\u7ec8\u70b9\uff09\u4e1c500\u7c73", "phone_service": "0437-3169000<br>0437-3169222", "phone_seal": "0437-3169111|0437-3169555", "website": "lylf", "phone": ""}, "601": {"id": "601", "name": "\u901a\u5316\u534e\u9633", "lng": "125.988555", "lat": "41.785594", "province": "\u5409\u6797", "city": "\u901a\u5316", "address": "\u901a\u5316\u5e02\u533b\u836f\u9ad8\u65b0\u533a\u96ea\u82b1\u8def\u4e0e\u9e64\u5927\u516c\u8def\u4ea4\u6c47\u5904\u4e1c\u884c200\u7c73", "phone_service": "0435-3380777", "phone_seal": "0435-3380666", "website": "thhy", "phone": ""}, "987": {"id": "987", "name": "\u901a\u5316\u534e\u9633\u6885\u6cb3\u53e3\u5206\u5e97", "lng": "125.669340", "lat": "42.542711", "province": "\u5409\u6797", "city": "\u6885\u6cb3\u53e3", "address": "\u6885\u6cb3\u53e3\u5e02\u5317\u73af\u897f\u8def\u957f\u5b89\u68c0\u6d4b\u7ebf\u5bf9\u9762", "phone_service": "0435-4803399", "phone_seal": "0435-4802288", "website": "thhy_mhk", "phone": ""}, "534": {"id": "534", "name": "\u4e00\u6c7d\u677e\u539f\u91d1\u5c71", "lng": "124.793898", "lat": "45.135930", "province": "\u5409\u6797", "city": "\u677e\u539f", "address": "\u677e\u539f\u5e02\u7ecf\u6d4e\u6280\u672f\u5f00\u53d1\u533a\u897f\u90ed\u5c14\u7f57\u65af\u5927\u8def2555\u53f7", "phone_service": "0438-2813335", "phone_seal": "0438-2717999", "website": "syjs", "phone": ""}, "943": {"id": "943", "name": "\u767d\u57ce\u7ecf\u5f00", "lng": "122.839732", "lat": "45.581131", "province": "\u5409\u6797", "city": "\u767d\u57ce", "address": "\u767d\u57ce\u5e02\u6d2e\u767d\u516c\u8def888\u53f7\u878d\u5c55\u6c7d\u8f66\u4ea7\u4e1a\u56ed\u4e00\u6c7d\u7ecf\u5f00\u4e30\u75304S\u5e97", "phone_service": "0436-5089222", "phone_seal": "0436-5085777", "website": "bcjk", "phone": ""}, "358": {"id": "358", "name": "\u5ef6\u8fb9\u91d1\u5c71", "lng": "129.590035", "lat": "42.904934", "province": "\u5409\u6797", "city": "\u5ef6\u8fb9", "address": "\u5ef6\u5409\u5e02\u7ecf\u6d4e\u6280\u672f\u5f00\u53d1\u533a\u957f\u767d\u5c71\u4e1c\u8def\u5357\u4fa7", "phone_service": "0433-2898588", "phone_seal": "0433-2898188", "website": "ybjs", "phone": ""}, "15": {"id": "15", "name": "\u54c8\u5c14\u6ee8\u534e\u901a", "lng": "126.696136", "lat": "45.757856", "province": "\u9ed1\u9f99\u6c5f", "city": "\u54c8\u5c14\u6ee8", "address": "\u54c8\u5c14\u6ee8\u5e02\u5357\u5c97\u533a\u5d69\u5c71\u8def87\u53f7", "phone_service": "0451-88620088", "phone_seal": "0451-88868889", "website": "hebht", "phone": ""}, "16": {"id": "16", "name": "\u54c8\u5c14\u6ee8\u9f99\u665f", "lng": "126.662436", "lat": "45.737837", "province": "\u9ed1\u9f99\u6c5f", "city": "\u54c8\u5c14\u6ee8", "address": "\u54c8\u5c14\u6ee8\u5e02\u9999\u574a\u533a\u548c\u5e73\u8def34\u53f7", "phone_service": "0451-82022222", "phone_seal": "0451-88877777", "website": "hebls", "phone": ""}, "17": {"id": "17", "name": "\u54c8\u5c14\u6ee8\u8fd0\u901a", "lng": "126.716245", "lat": "45.754035", "province": "\u9ed1\u9f99\u6c5f", "city": "\u54c8\u5c14\u6ee8", "address": "\u54c8\u5c14\u6ee8\u5e02\u5357\u5c97\u533a\u5357\u76f4\u8def129\u53f7", "phone_service": "0451-55173502", "phone_seal": "0451-55173999", "website": "hebyt", "phone": ""}, "18": {"id": "18", "name": "\u54c8\u5c14\u6ee8\u4e2d\u5347", "lng": "126.756638", "lat": "45.780903", "province": "\u9ed1\u9f99\u6c5f", "city": "\u54c8\u5c14\u6ee8", "address": "\u54c8\u5c14\u6ee8\u5e02\u9053\u5916\u533a\u5148\u950b\u8def7\u53f7", "phone_service": "0451-85922000", "phone_seal": "0451-88878889", "website": "hrbzs", "phone": ""}, "21": {"id": "21", "name": "\u9f50\u9f50\u54c8\u5c14\u9a8f\u5408", "lng": "123.937560", "lat": "47.310804", "province": "\u9ed1\u9f99\u6c5f", "city": "\u9f50\u9f50\u54c8\u5c14", "address": "\u9f50\u9f50\u54c8\u5c14\u5e02\u9f99\u6c99\u533a\u6c38\u5b89\u5357\u5927\u8857131\u53f7", "phone_service": "0452-6199955|0452-6199966", "phone_seal": "0452-6199977|0452-6199988", "website": "qqhejh", "phone": ""}, "734": {"id": "734", "name": "\u54c8\u5c14\u6ee8\u8fd0\u901a\u4e94\u5e38\u5206\u5e97", "lng": "127.152519", "lat": "44.922866", "province": "\u9ed1\u9f99\u6c5f", "city": "\u54c8\u5c14\u6ee8", "address": "\u4e94\u5e38\u5e02\u5efa\u8bbe\u5927\u885721\u53f7", "phone_service": "0451-53507567", "phone_seal": "0451-53507567", "website": "hrbyt_wc", "phone": ""}, "939": {"id": "939", "name": "\u9f50\u9f50\u54c8\u5c14\u6c47\u8fbe", "lng": "124.071387", "lat": "47.349593", "province": "\u9ed1\u9f99\u6c5f", "city": "\u9f50\u9f50\u54c8\u5c14", "address": "\u9ed1\u9f99\u6c5f\u7701\u9f50\u9f50\u54c8\u5c14\u5e02\u94c1\u950b\u533a\u8054\u901a\u5927\u9053\u6c7d\u8d38\u57ce\u5730\u6bb5\u4e30\u75304S\u5e97", "phone_service": "0452-5656999", "phone_seal": "0452-5656888", "website": "qqhehd", "phone": ""}, "949": {"id": "949", "name": "\u54c8\u5c14\u6ee8\u8fd0\u901a\u4f0a\u6625\u5206\u5e97", "lng": "128.843754", "lat": "47.856323", "province": "\u9ed1\u9f99\u6c5f", "city": "\u54c8\u5c14\u6ee8", "address": "\u9ed1\u9f99\u6c5f\u7701\u4f0a\u6625\u5e02\u4f0a\u6625\u533a\u51e4\u51f0\u6c34\u5cb8C\u533a000125\u53f7\u95e8\u5e02", "phone_service": "0458-6162345", "phone_seal": "0458-6161888", "website": "hebyt_yc", "phone": ""}, "950": {"id": "950", "name": "\u54c8\u5c14\u6ee8\u8fd0\u901a\u963f\u57ce\u5206\u5e97", "lng": "126.992980", "lat": "45.552513", "province": "\u9ed1\u9f99\u6c5f", "city": "\u54c8\u5c14\u6ee8", "address": "\u54c8\u5c14\u6ee8\u5e02\u963f\u57ce\u533a\u4f1a\u5b81\u8def203\u53f7", "phone_service": "0451-53725888", "phone_seal": "0451-51724666", "website": "hebyt_ac", "phone": ""}, "427": {"id": "427", "name": "\u9e21\u897f\u540d\u6d3e", "lng": "130.979933", "lat": "45.311606", "province": "\u9ed1\u9f99\u6c5f", "city": "\u9e21\u897f", "address": "\u9e21\u897f\u5e02\u9e21\u51a0\u533a\u4ea7\u4e1a\u56ed\u533aA-12-B9\u9e21\u897f\u540d\u6d3e\u4e30\u75304S\u5e97", "phone_service": "0467-6992728", "phone_seal": "0467-6223333", "website": "jxmp", "phone": ""}, "610": {"id": "610", "name": "\u9e64\u5c97\u4e1c\u5c71\u9f99\u665f", "lng": "130.354227", "lat": "47.335138", "province": "\u9ed1\u9f99\u6c5f", "city": "\u9e64\u5c97", "address": "\u9e64\u5c97\u5e02\u4e1c\u5c71\u533a\u65b0\u4e00\u4e8c\u516c\u91cc\u5904\u8def\u5357", "phone_service": "0468-3334700", "phone_seal": "0468-3272111", "website": "hgdsls", "phone": ""}, "611": {"id": "611", "name": "\u53cc\u9e2d\u5c71\u534e\u901a", "lng": "131.169070", "lat": "46.725672", "province": "\u9ed1\u9f99\u6c5f", "city": "\u53cc\u9e2d\u5c71", "address": "\u53cc\u9e2d\u5c71\u96c6\u8d24\u4e1c\u5916\u73af\u6339\u697c\u5927\u9053\u897f\u4fa7\u534e\u901a\u4e30\u7530", "phone_service": "0469-6131456", "phone_seal": "0469-6133222", "website": "sysht", "phone": ""}, "19": {"id": "19", "name": "\u5927\u5e86\u5409\u660c\u9f99", "lng": "124.913444", "lat": "46.611481", "province": "\u9ed1\u9f99\u6c5f", "city": "\u5927\u5e86", "address": "\u5927\u5e86\u5e02\u8ba9\u80e1\u8def\u533a\u5317\u65b9\u6c7d\u914d\u57ce\u5409\u660c\u9f99\u4e30\u75304S\u5e97", "phone_service": "0459-5911110|0459-5911100", "phone_seal": "0459-5911866|0459-5911788", "website": "dqjcl", "phone": ""}, "609": {"id": "609", "name": "\u5927\u5e86\u540d\u6d3e", "lng": "125.017334", "lat": "46.613407", "province": "\u9ed1\u9f99\u6c5f", "city": "\u5927\u5e86", "address": "\u5e86\u5e02\u8428\u5c14\u56fe\u533a\u4e2d\u4e03\u8def11\u53f7(\u4e2d\u4e03\u8def\u5ba2\u8fd0\u7ad9\u897f\u4fa7)", "phone_service": "0459-6972222", "phone_seal": "0459-6999000", "website": "dqmp", "phone": ""}, "465": {"id": "465", "name": "\u4f73\u6728\u65af\u53cb\u8c0a\u534e\u901a", "lng": "130.238775", "lat": "46.804529", "province": "\u9ed1\u9f99\u6c5f", "city": "\u4f73\u6728\u65af", "address": "\u4f73\u6728\u65af\u5e02\u56db\u5408\u7ecf\u6d4e\u5f00\u53d1\u533a\u53cb\u8c0a\u8def1497\u53f7(\u957f\u9752\u4e61\u56db\u5408\u6751)", "phone_service": "0454-8512068", "phone_seal": "0454-8889888", "website": "jmsyyht", "phone": ""}, "404": {"id": "404", "name": "\u54c8\u5c14\u6ee8\u534e\u901a\u4e03\u53f0\u6cb3\u5206\u5e97", "lng": "130.947663", "lat": "45.783916", "province": "\u9ed1\u9f99\u6c5f", "city": "\u4e03\u53f0\u6cb3", "address": "\u4e03\u53f0\u6cb3\u5e02\u6843\u5c71\u533a\u5927\u660e\u8857\u68ee\u5e1d\u5de5\u4e1a\u56ed\u533a\u4e1c\u4fa7", "phone_service": "0464-8216333", "phone_seal": "0464-8216111", "website": "hebht_qth", "phone": ""}, "20": {"id": "20", "name": "\u7261\u4e39\u6c5f\u540d\u6d3e", "lng": "129.643566", "lat": "44.602402", "province": "\u9ed1\u9f99\u6c5f", "city": "\u7261\u4e39\u6c5f", "address": "\u7261\u4e39\u6c5f\u5e02\u5149\u534e\u8857268\u53f7", "phone_service": "0453-6322111|0453-6337555", "phone_seal": "0453-6365555|0453-6655555", "website": "mdjmp", "phone": ""}, "612": {"id": "612", "name": "\u9ed1\u6cb3\u5609\u5fb7\u5229", "lng": "127.514467", "lat": "50.224077", "province": "\u9ed1\u9f99\u6c5f", "city": "\u9ed1\u6cb3", "address": "\u9ed1\u6cb3\u5e02\u5408\u4f5c\u533a202\u56fd\u90530\u516c\u91cc\u5357600\u7c73\u4e8c\u516c\u6cb3\u5de5\u4e1a\u56ed\u533a\t\t\t\t", "phone_service": "0456-8888811&lt;/br&gt;0456-8965999\t\t\t\t", "phone_seal": "0456-6761666", "website": "hhjdl", "phone": ""}, "936": {"id": "936", "name": "\u54c8\u5c14\u6ee8\u8fd0\u901a\u9ed1\u6cb3\u5206\u5e97", "lng": "127.498481", "lat": "49.988379", "province": "\u9ed1\u9f99\u6c5f", "city": "\u9ed1\u6cb3", "address": "\u9ed1\u6cb3\u5e02\u7231\u8f89\u9547136\u53f7", "phone_service": "0456-6180033", "phone_seal": "0456-6180022", "website": "hebyt_hh", "phone": ""}, "608": {"id": "608", "name": "\u7ee5\u5316\u5e9e\u5927\u4e30\u96c5", "lng": "126.986889", "lat": "46.590016", "province": "\u9ed1\u9f99\u6c5f", "city": "\u7ee5\u5316", "address": "\u7ee5\u5316\u5e02\u7ecf\u6d4e\u5f00\u53d1\u533a\u516d\u9a6c\u67b6\u52a0\u6cb9\u7ad9\u897f700\u7c73\u5e9e\u5927\u6c7d\u8f66\u56ed\u9662\u5185", "phone_service": "0455-8124700", "phone_seal": "0455-3580000|0455-3584505", "website": "shpdfy", "phone": ""}, "961": {"id": "961", "name": "\u7ee5\u5316\u5e9e\u5927\u4e30\u96c5\u5e86\u5b89\u5206\u5e97", "lng": "127.503050", "lat": "46.890987", "province": "\u9ed1\u9f99\u6c5f", "city": "\u7ee5\u5316", "address": "\u9ed1\u9f99\u6c5f\u7701\u7ee5\u5316\u5e02\u5e86\u5b89\u53bf\u51ef\u60a6\u65b0\u57ce\u5546\u670d", "phone_service": "0455-3584701", "phone_seal": "0455-3584702", "website": "shpdfy_qa", "phone": ""}, "1020": {"id": "1020", "name": "\u7ee5\u5316\u5e9e\u5927\u4e30\u96c5\u8087\u4e1c\u5206\u5e97", "lng": "125.967962", "lat": "46.056336", "province": "\u9ed1\u9f99\u6c5f", "city": "\u7ee5\u5316", "address": "\u9ed1\u9f99\u6c5f\u7701\u7ee5\u5316\u5e02\u8087\u4e1c\u5e02\u516b\u5357\u56db\u59d4\u56db\u5341\u516b\u7ec4", "phone_service": "", "phone_seal": "0455-3584702", "website": "pdfy_zd", "phone": ""}, "501": {"id": "501", "name": "\u52a0\u683c\u8fbe\u5947\u534e\u901a", "lng": "124.108665", "lat": "50.437548", "province": "\u9ed1\u9f99\u6c5f", "city": "\u5927\u5174\u5b89\u5cad", "address": "\u52a0\u683c\u8fbe\u5947\u533a\u963f\u52a0\u516c\u8def\u897f\u51fa\u53e3\u8def\u957f\u8679\u793e\u533a\u5317\u4fa7", "phone_service": "0457-2756789", "phone_seal": "0457-2755678", "website": "hebht_jgdq", "phone": ""}, "158": {"id": "158", "name": "\u4e0a\u6d77\u548c\u88d5", "lng": "121.337262", "lat": "31.174411", "province": "\u4e0a\u6d77", "city": "\u4e0a\u6d77", "address": "\u4e0a\u6d77\u5e02\u6caa\u9752\u5e73\u516c\u8def999\u53f7", "phone_service": "021-64202819", "phone_seal": "021-64202769", "website": "shhy", "phone": ""}, "159": {"id": "159", "name": "\u4e0a\u6d77\u4e1c\u660c", "lng": "121.550690", "lat": "31.211140", "province": "\u4e0a\u6d77", "city": "\u4e0a\u6d77", "address": "\u4e0a\u6d77\u6d66\u4e1c\u65b0\u533a\u6d66\u5efa\u8def1317\u53f7", "phone_service": "021-50450000", "phone_seal": "021-50450000", "website": "shdc", "phone": ""}, "160": {"id": "160", "name": "\u4e0a\u6d77\u6c38\u8fbe", "lng": "121.639093", "lat": "31.230500", "province": "\u4e0a\u6d77", "city": "\u4e0a\u6d77", "address": "\u4e0a\u6d77\u5e02\u6d66\u4e1c\u65b0\u533a\u9f99\u4e1c\u5927\u90532865\u53f7", "phone_service": "021-58965678", "phone_seal": "021-58965678", "website": "shyd", "phone": ""}, "161": {"id": "161", "name": "\u4e0a\u6d77\u5929\u8679", "lng": "121.539604", "lat": "31.193267", "province": "\u4e0a\u6d77", "city": "\u4e0a\u6d77", "address": "\u4e0a\u6d77\u5e02\u6d66\u4e1c\u65b0\u533a\u6caa\u5357\u516c\u8def4546\u53f7", "phone_service": "021-50395700", "phone_seal": "021-50395900", "website": "shth", "phone": ""}, "163": {"id": "163", "name": "\u4e0a\u6d77\u9526\u6c5f", "lng": "121.421458", "lat": "31.193682", "province": "\u4e0a\u6d77", "city": "\u4e0a\u6d77", "address": "\u4e0a\u6d77\u5e02\u5f90\u6c47\u533a\u5434\u4e2d\u8def88\u53f7(\u8fd1\u5185\u73af\u7ebf)", "phone_service": "021-62702258", "phone_seal": "021-64645678", "website": "shjj", "phone": ""}, "164": {"id": "164", "name": "\u4e0a\u6d77\u4e2d\u6c7d", "lng": "121.418626", "lat": "31.236811", "province": "\u4e0a\u6d77", "city": "\u4e0a\u6d77", "address": "\u4e0a\u6d77\u5e02\u666e\u9640\u533a\u5b81\u590f\u8def711\u53f7(\u8f7b\u8f68\u91d1\u6c99\u6c5f\u8def\u7ad9\u5bf9\u9762)", "phone_service": "021-62232233", "phone_seal": "021-62232233", "website": "shzq", "phone": ""}, "165": {"id": "165", "name": "\u4e0a\u6d77\u4e2d\u5347", "lng": "121.377871", "lat": "31.240524", "province": "\u4e0a\u6d77", "city": "\u4e0a\u6d77", "address": "\u4e0a\u6d77\u5e02\u666e\u9640\u533a\u91d1\u6c99\u6c5f\u8def2033\u53f7", "phone_service": "021-52708965", "phone_seal": "021-52708996", "website": "shzs", "phone": ""}, "166": {"id": "166", "name": "\u4e0a\u6d77\u51a0\u677e", "lng": "121.514326", "lat": "31.318354", "province": "\u4e0a\u6d77", "city": "\u4e0a\u6d77", "address": "\u4e0a\u6d77\u5e02\u6768\u6d66\u533a\u6dde\u6caa\u8def718\u53f7(\u8fd1\u4e94\u89d2\u573a)", "phone_service": "021-65119600", "phone_seal": "021-65657890|021-65659898", "website": "shgs", "phone": ""}, "167": {"id": "167", "name": "\u4e0a\u6d77\u4e07\u5174", "lng": "121.537535", "lat": "31.279007", "province": "\u4e0a\u6d77", "city": "\u4e0a\u6d77", "address": "\u4e0a\u6d77\u5e02\u6768\u6d66\u533a\u9ec4\u5174\u8def168\u53f7(\u5468\u5bb6\u5634\u8def\u957f\u9633\u8def\u4e4b\u95f4)", "phone_service": "021-65395099", "phone_seal": "021-65398777", "website": "shwx", "phone": ""}, "168": {"id": "168", "name": "\u4e0a\u6d77\u51a0\u677e\u7ec5\u6656", "lng": "121.390908", "lat": "31.276001", "province": "\u4e0a\u6d77", "city": "\u4e0a\u6d77", "address": "\u4e0a\u6d77\u5e02\u666e\u9640\u533a\u771f\u5357\u8def818\u53f7(\u4e2d\u73af\u7ebf\u771f\u5317\u8def\u771f\u5357\u8def\u53e3\u9644\u8fd1)", "phone_service": "021-62502628", "phone_seal": "021-62502727", "website": "shgssh", "phone": ""}, "169": {"id": "169", "name": "\u4e0a\u6d77\u534f\u901a", "lng": "121.179153", "lat": "31.290346", "province": "\u4e0a\u6d77", "city": "\u4e0a\u6d77", "address": "\u4e0a\u6d77\u5e02\u5609\u5b9a\u533a\u5b89\u4ead\u56fd\u9645\u6c7d\u8f66\u57ce\u5b89\u9a70\u8def558\u53f7", "phone_service": "021-69502470", "phone_seal": "021-69502929", "website": "shxt", "phone": ""}, "763": {"id": "763", "name": "\u4e0a\u6d77\u4e2d\u6c7d\u677e\u6c5f\u5206\u5e97", "lng": "121.250650", "lat": "31.027006", "province": "\u4e0a\u6d77", "city": "\u4e0a\u6d77", "address": "\u677e\u6c5f\u533a\u7f8e\u80fd\u8fbe\u8def800\u53f7", "phone_service": "021-62231880|021-62232233", "phone_seal": "021-62231880|021-62232233", "website": "shzq_sj", "phone": ""}, "764": {"id": "764", "name": "\u4e0a\u6d77\u4e1c\u660c\u5949\u8d24\u5206\u5e97", "lng": "121.596075", "lat": "30.917779", "province": "\u4e0a\u6d77", "city": "\u4e0a\u6d77", "address": "\u4e0a\u6d77\u5e02\u5949\u8d24\u533a\u9752\u6751\u9547\u5149\u5927\u8def1\u53f7", "phone_service": "021-57505788-809", "phone_seal": "021-57505788-802", "website": "shdc_fx", "phone": ""}, "765": {"id": "765", "name": "\u4e0a\u6d77\u51a0\u677e\u6d66\u4e1c\u5206\u5e97", "lng": "121.628634", "lat": "31.204183", "province": "\u4e0a\u6d77", "city": "\u4e0a\u6d77", "address": "\u4e0a\u6d77\u6d66\u4e1c\u65b0\u533a\u5f20\u6c5f\u8def1160\u53f7", "phone_service": "021-58581616", "phone_seal": "021-68688111", "website": "shgs_pd", "phone": ""}, "215": {"id": "215", "name": "\u5357\u4eac\u6717\u9a70", "lng": "118.819950", "lat": "31.969590", "province": "\u6c5f\u82cf", "city": "\u5357\u4eac", "address": "\u5357\u4eac\u5e02\u6816\u971e\u533a\u6816\u971e\u5927\u90532\u53f7\uff08\u6653\u5e84\u6c7d\u8f66\u56ed\uff09", "phone_service": "025-52153100", "phone_seal": "025-52153111", "website": "njlc", "phone": ""}, "216": {"id": "216", "name": "\u5357\u4eac\u4e2d\u5347\u8fce\u5bbe", "lng": "118.865535", "lat": "32.024573", "province": "\u6c5f\u82cf", "city": "\u5357\u4eac", "address": "\u5357\u4eac\u5e02\u767d\u4e0b\u533a\u5149\u534e\u8def119\u53f7(\u767e\u5b89\u5c45\u5411\u4e1c200\u7c73)", "phone_service": "025-66629222", "phone_seal": "025-66626222", "website": "njzsyb", "phone": ""}, "217": {"id": "217", "name": "\u5357\u4eac\u4e2d\u5347", "lng": "118.804162", "lat": "31.989920", "province": "\u6c5f\u82cf", "city": "\u5357\u4eac", "address": "\u5357\u4eac\u5e02\u96e8\u82b1\u53f0\u533a\u8f6f\u4ef6\u5927\u905310\u53f7", "phone_service": "025-52458777", "phone_seal": "025-52458666", "website": "njzs", "phone": ""}, "674": {"id": "674", "name": "\u5357\u4eac\u6c5f\u5b81\u4e2d\u5347", "lng": "118.879398", "lat": "31.985746", "province": "\u6c5f\u82cf", "city": "\u5357\u4eac", "address": "\u5357\u4eac\u6c5f\u5b81\u533a\u4e1c\u5c71\u8857\u9053\u5929\u884c\u8def2\u53f7", "phone_service": "025-81031028<br>025-51190000", "phone_seal": "025-81031018|025-51190000", "website": "njjnzs", "phone": ""}, "676": {"id": "676", "name": "\u6c5f\u82cf\u6d66\u53e3\u51a0\u677e", "lng": "118.729434", "lat": "32.127872", "province": "\u6c5f\u82cf", "city": "\u5357\u4eac", "address": "\u5357\u4eac\u5e02\u6d66\u53e3\u533a\u6d66\u73e0\u5317\u8def36\u53f7", "phone_service": "025-83576800|025-83576866", "phone_seal": "025-83576888|025-83576868", "website": "jspkgs", "phone": ""}, "770": {"id": "770", "name": "\u6c5f\u82cf\u51a0\u677e\u516d\u5408\u5206\u5e97", "lng": "118.742999", "lat": "32.231323", "province": "\u6c5f\u82cf", "city": "\u5357\u4eac", "address": "\u5357\u4eac\u5e02\u6cbf\u6c5f\u5de5\u4e1a\u5f00\u53d1\u533a\u5b81\u516d\u8def349\u53f7", "phone_service": "025-57065188", "phone_seal": "025-57065188", "website": "jsgs_lh", "phone": ""}, "180": {"id": "180", "name": "\u65e0\u9521\u5e38\u9686", "lng": "120.395307", "lat": "31.585473", "province": "\u6c5f\u82cf", "city": "\u65e0\u9521", "address": "\u65e0\u9521\u5e02\u4e1c\u4ead\u9521\u6caa\u4e1c\u8def232\u53f7", "phone_service": "0510-88250998", "phone_seal": "0510-88252200", "website": "wxcl", "phone": ""}, "181": {"id": "181", "name": "\u6c5f\u9634\u76db\u8fbe", "lng": "120.315831", "lat": "31.926032", "province": "\u6c5f\u82cf", "city": "\u65e0\u9521", "address": "\u6c5f\u9634\u5e02\u4e1c\u5916\u73af\u8def8-10\u53f7", "phone_service": "0510-86407878", "phone_seal": "0510-86407788|0510-86418829", "website": "jysd", "phone": ""}, "182": {"id": "182", "name": "\u65e0\u9521\u4e2d\u5a01", "lng": "120.295828", "lat": "31.622074", "province": "\u6c5f\u82cf", "city": "\u65e0\u9521", "address": "\u65e0\u9521\u5e02\u51e4\u7fd4\u8def26\u53f7", "phone_service": "0510-83119999", "phone_seal": "0510-83115555", "website": "wxzw", "phone": ""}, "183": {"id": "183", "name": "\u65e0\u9521\u91d1\u57ce", "lng": "120.301191", "lat": "31.530582", "province": "\u6c5f\u82cf", "city": "\u65e0\u9521", "address": "\u65e0\u9521\u5e02\u91d1\u57ce\u897f\u8def\u91d1\u57ce\u6e7e\u8def\u53e3(\u535c\u8702\u83b2\u82b1\u8d85\u5e02\u91d1\u57ce\u5e97\u5317\u9762)", "phone_service": "0510-85071199|0510-85072299", "phone_seal": "0510-85073800|0510-85073900", "website": "wxjc", "phone": ""}, "187": {"id": "187", "name": "\u5b9c\u5174\u65b0\u82cf\u5357", "lng": "119.792334", "lat": "31.394017", "province": "\u6c5f\u82cf", "city": "\u65e0\u9521", "address": "\u5b9c\u5174\u7ecf\u6d4e\u5f00\u53d1\u533a(\u878d\u8fbe\u6c7d\u8f66\u57ce)", "phone_service": "0510-87229222|0510-80700699", "phone_seal": "0510-80700000", "website": "yxxsn", "phone": ""}, "341": {"id": "341", "name": "\u65e0\u9521\u65b0\u6d32", "lng": "120.393245", "lat": "31.542014", "province": "\u6c5f\u82cf", "city": "\u65e0\u9521", "address": "\u65e0\u9521\u5e02\u65b0\u533a\u884c\u521b\u56db\u8def18\u53f7\uff08\u65b0\u6d32\u4eba\u5bb6\u5c0f\u533a\u5bf9\u9762\uff09", "phone_service": "0510-85201100|0510-85203008", "phone_seal": "0510-85202888|0510-85202008", "website": "wxxz", "phone": ""}, "512": {"id": "512", "name": "\u6c5f\u9634\u5e38\u9686", "lng": "120.202900", "lat": "31.906540", "province": "\u6c5f\u82cf", "city": "\u65e0\u9521", "address": "\u6c5f\u9634\u5e02\u590f\u6e2f\u56fd\u9645\u6c7d\u8f66\u57ce(\u4e94\u661f\u8def1688\u53f7)", "phone_service": "0510-80661919|0510-80669533", "phone_seal": "0510-80662222", "website": "jycl", "phone": ""}, "566": {"id": "566", "name": "\u65e0\u9521\u91d1\u57ce\u60e0\u5c71\u5206\u5e97", "lng": "120.190770", "lat": "31.641351", "province": "\u6c5f\u82cf", "city": "\u65e0\u9521", "address": "\u6c5f\u82cf\u7701\u65e0\u9521\u5e02\u6d1b\u793e\u4eba\u6c11\u8def\u4e0e312\u56fd\u9053\u4ea4\u53c9\u53e3(\u878d\u5a01\u8d77\u91cd\u673a\u516c\u53f8\u65c1)", "phone_service": "0510-83326699", "phone_seal": "0510-83326600", "website": "wxjc_hs", "phone": ""}, "769": {"id": "769", "name": "\u6c5f\u9634\u76db\u8fbe\u957f\u6cfe\u5206\u5e97", "lng": "120.505930", "lat": "31.754310", "province": "\u6c5f\u82cf", "city": "\u65e0\u9521", "address": "\u6c5f\u9634\u5e02\u957f\u6cfe\u9547\u4e91\u987e\u8def69\u53f7", "phone_service": "0510-86003388", "phone_seal": "0510-86409028", "website": "jysd_cj", "phone": ""}, "771": {"id": "771", "name": "\u5b9c\u5174\u65b0\u82cf\u5357\u73af\u79d1\u56ed\u5206\u5e97", "lng": "119.774551", "lat": "31.365698", "province": "\u6c5f\u82cf", "city": "\u65e0\u9521", "address": "\u6c5f\u82cf\u7701\u5b9c\u5174\u5e02\u65b0\u8857\u8857\u9053\u5802\u524d\u6751\u7eff\u56ed\u897f\u8def\u5f6d\u5e84601\u53f7", "phone_service": "0510-80735999", "phone_seal": "0510-80735666", "website": "yxxsn_hky", "phone": ""}, "223": {"id": "223", "name": "\u5f90\u5dde\u6da6\u4e1c", "lng": "117.246823", "lat": "34.212660", "province": "\u6c5f\u82cf", "city": "\u5f90\u5dde", "address": "\u5f90\u5dde\u5e02\u4e91\u9f99\u533a\u57df\u5357104\u56fd\u9053\u897f\u4fa7\u4e24\u5c71\u53e3\u5317", "phone_service": "0516-83206811", "phone_seal": "0516-83209888", "website": "xzrd", "phone": ""}, "491": {"id": "491", "name": "\u5f90\u5dde\u5e38\u7f18", "lng": "117.288364", "lat": "34.276435", "province": "\u6c5f\u82cf", "city": "\u5f90\u5dde", "address": "\u5f90\u5dde\u7ecf\u6d4e\u6280\u672f\u5f00\u53d1\u533a\u57ce\u4e1c\u5927\u9053\u5317\u4fa7\u5f90\u6d77\u8def28\u53f7\uff08\u9ad8\u94c1\u897f\u5317\u4e00\u516c\u91cc\uff09", "phone_service": "0516-85065555", "phone_seal": "0516-85781111", "website": "xzcy", "phone": ""}, "184": {"id": "184", "name": "\u5e38\u5dde\u5916\u6c7d", "lng": "119.988174", "lat": "31.842107", "province": "\u6c5f\u82cf", "city": "\u5e38\u5dde", "address": "\u5e38\u5dde\u65b0\u5317\u533a\u9ec4\u6cb3\u4e1c\u8def96\u53f7", "phone_service": "0519-85116288", "phone_seal": "0519-85110088", "website": "czwq", "phone": ""}, "185": {"id": "185", "name": "\u5e38\u5dde\u5929\u5b81", "lng": "119.965303", "lat": "31.699905", "province": "\u6c5f\u82cf", "city": "\u5e38\u5dde", "address": "\u5e38\u5dde\u5e02\u6b66\u8fdb\u6c7d\u8f66\u57ceA\u533a6\u53f7", "phone_service": "0519-86523999", "phone_seal": "0519-86522388|0519-86523988", "website": "cztn", "phone": ""}, "186": {"id": "186", "name": "\u5e38\u5dde\u4e16\u7eaa\u884c", "lng": "119.907124", "lat": "31.784213", "province": "\u6c5f\u82cf", "city": "\u5e38\u5dde", "address": "\u5e38\u5dde\u5e02\u949f\u697c\u533a\u9f99\u6c5f\u4e2d\u8def19\u53f7", "phone_service": "0519-83282288<br>0519-83903999", "phone_seal": "0519-83282288|0519-83903666", "website": "czsjh", "phone": ""}, "342": {"id": "342", "name": "\u6ea7\u9633\u65b0\u82cf\u5357", "lng": "119.504750", "lat": "31.469542", "province": "\u6c5f\u82cf", "city": "\u5e38\u5dde", "address": "\u6606\u4ed1\u7ecf\u6d4e\u5f00\u53d1\u533a\u817e\u98de\u8def2\u53f7", "phone_service": "0519-87555588", "phone_seal": "0519-87775588", "website": "lyxsn", "phone": ""}, "171": {"id": "171", "name": "\u5e38\u719f\u6d77\u90a6", "lng": "120.800569", "lat": "31.642270", "province": "\u6c5f\u82cf", "city": "\u82cf\u5dde", "address": "\u5e38\u719f\u5e02\u9752\u58a9\u5858\u8def188\u53f7", "phone_service": "0512-52805999", "phone_seal": "0512-52806666", "website": "cshb", "phone": ""}, "172": {"id": "172", "name": "\u82cf\u5dde\u5eb7\u798f", "lng": "120.668201", "lat": "31.311984", "province": "\u6c5f\u82cf", "city": "\u82cf\u5dde", "address": "\u82cf\u5dde\u5de5\u4e1a\u56ed\u533a\u4e2d\u65b0\u5927\u9053\u897f188\u53f7", "phone_service": "0512-67672323", "phone_seal": "0512-67620202", "website": "szkf", "phone": ""}, "173": {"id": "173", "name": "\u82cf\u5dde\u6c47\u51ef <em style='color:red;font-style:normal;'>\u3010\u6682\u505c\u670d\u52a1\u3011</em>", "lng": "120.665694", "lat": "31.283618", "province": "\u6c5f\u82cf", "city": "\u82cf\u5dde", "address": "\u82cf\u5dde\u5e02\u5de5\u4e1a\u56ed\u533a\u901a\u56ed\u8def100\u53f7", "phone_service": "0512-67162999", "phone_seal": "0512-67166211", "website": "szhk", "phone": ""}, "174": {"id": "174", "name": "\u82cf\u5dde\u7531\u7531", "lng": "120.558470", "lat": "31.330769", "province": "\u6c5f\u82cf", "city": "\u82cf\u5dde", "address": "\u82cf\u5dde\u65b0\u533a\u5854\u56ed\u8def388\u53f7", "phone_service": "0512-66620019", "phone_seal": "0512-66620588", "website": "szyy", "phone": ""}, "175": {"id": "175", "name": "\u82cf\u5dde\u534e\u6210", "lng": "120.549476", "lat": "31.263704", "province": "\u6c5f\u82cf", "city": "\u82cf\u5dde", "address": "\u82cf\u5dde\u5e02\u5434\u4e2d\u533a\u6728\u6e0e\u9547\u4e2d\u5c71\u4e1c\u8def152\u53f7(\u6728\u6e0e\u51ef\u9a6c\u6c7d\u8f66\u57ce\u5185)", "phone_service": "0512-66259889", "phone_seal": "0512-66258828", "website": "szhc", "phone": ""}, "176": {"id": "176", "name": "\u82cf\u5dde\u4e2d\u56ed", "lng": "120.679780", "lat": "31.183424", "province": "\u6c5f\u82cf", "city": "\u82cf\u5dde", "address": "\u5434\u6c5f\u7ecf\u6d4e\u5f00\u53d1\u533a\u5e9e\u5317\u8def188\u53f7", "phone_service": "0512-63009888", "phone_seal": "0512-63009999", "website": "szzy", "phone": ""}, "177": {"id": "177", "name": "\u82cf\u5dde\u88d5\u8fbe", "lng": "120.644923", "lat": "31.417453", "province": "\u6c5f\u82cf", "city": "\u82cf\u5dde", "address": "\u82cf\u5dde\u5e02\u76f8\u57ce\u533a\u592a\u9633\u8def1988\u53f7", "phone_service": "0512-65869688", "phone_seal": "0512-65869888", "website": "suzhouyd", "phone": ""}, "178": {"id": "178", "name": "\u5f20\u5bb6\u6e2f\u4e1c\u8054", "lng": "120.596703", "lat": "31.876909", "province": "\u6c5f\u82cf", "city": "\u82cf\u5dde", "address": "\u5f20\u5bb6\u6e2f\u5e02\u5f20\u6768\u8def\u848b\u6865", "phone_service": "0512-58294171", "phone_seal": "0512-58985222", "website": "zjgdl", "phone": ""}, "179": {"id": "179", "name": "\u6606\u5c71\u901a\u548c", "lng": "120.986097", "lat": "31.377873", "province": "\u6c5f\u82cf", "city": "\u82cf\u5dde", "address": "\u6606\u5c71\u5e02\u957f\u6c5f\u4e2d\u8def105\u53f7", "phone_service": "0512-57360996", "phone_seal": "400 186 3579", "website": "ksth", "phone": ""}, "343": {"id": "343", "name": "\u592a\u4ed3\u68ee\u4e30\u76db\u8fbe", "lng": "121.102379", "lat": "31.482738", "province": "\u6c5f\u82cf", "city": "\u82cf\u5dde", "address": "\u592a\u4ed3\u5e02\u592a\u5e73\u5317\u8def111\u53f7\u68ee\u8302\u56fd\u9645\u6c7d\u8f66\u57ce4S\u533a3\u53f7\u5c55\u5385", "phone_service": "0512-53776969", "phone_seal": "0512-53776666", "website": "tcssfsd", "phone": ""}, "679": {"id": "679", "name": "\u6606\u5c71\u6606\u5609", "lng": "121.081391", "lat": "31.369124", "province": "\u6c5f\u82cf", "city": "\u82cf\u5dde", "address": "\u6606\u5c71\u5f00\u53d1\u533a\u6606\u5609\u8def(\u4ea4\u8b66\u961f\u659c\u5bf9\u9762\uff0c\u4e00\u6c7d\u9a6c\u81ea\u8fbe4S\u5e97\u4e1c\u9762)", "phone_service": "0512-55218777", "phone_seal": "0512-55218888", "website": "kskj", "phone": ""}, "766": {"id": "766", "name": "\u82cf\u5dde\u4e2d\u56ed\u76db\u6cfd\u5206\u5e97", "lng": "120.631213", "lat": "30.898120", "province": "\u6c5f\u82cf", "city": "\u82cf\u5dde", "address": "\u82cf\u5dde\u5e02\u5434\u6c5f\u533a\u76db\u6cfd\u9547\u897f\u4e8c\u73af\u8def(\u8272\u576f\u5546\u57ce\u5357100\u7c73)", "phone_service": "0512-63988599", "phone_seal": "0512-63988288", "website": "szzy_sz", "phone": ""}, "768": {"id": "768", "name": "\u5e38\u719f\u6d77\u90a6\u6df1\u5733\u8def\u5206\u5e97", "lng": "120.757897", "lat": "31.696998", "province": "\u6c5f\u82cf", "city": "\u82cf\u5dde", "address": "\u5e38\u719f\u5e02\u6df1\u5733\u8def12\u53f7", "phone_service": "0512-52191666", "phone_seal": "0512-52806666", "website": "cshb_szl", "phone": ""}, "851": {"id": "851", "name": "\u5f20\u5bb6\u6e2f\u4e1c\u8054\u91d1\u6e2f\u5206\u5e97", "lng": "120.462646", "lat": "31.967470", "province": "\u6c5f\u82cf", "city": "\u82cf\u5dde", "address": "\u82cf\u5dde\u5f20\u5bb6\u6e2f\u5e02\u4fdd\u7a0e\u533a\u4e2d\u534e\u8def99\u53f7\u4e1c\u8054\u4e30\u7530\u5206\u5e97", "phone_service": "0512-35027115", "phone_seal": "0512-58985111 ", "website": "zjgdl_jg", "phone": ""}, "907": {"id": "907", "name": "\u82cf\u5dde\u88d5\u8fbe\u9ad8\u6559\u56ed\u533a\u5206\u5e97", "lng": "120.752859", "lat": "31.266369", "province": "\u6c5f\u82cf", "city": "\u82cf\u5dde", "address": "\u82cf\u5dde\u5de5\u4e1a\u56ed\u533a\u72ec\u5885\u6e56\u9ad8\u6821\u533a\u96ea\u5802\u88571\u53f7", "phone_service": "0512-62751119", "phone_seal": "0512-62752999", "website": "yd_ggyq", "phone": ""}, "1019": {"id": "1019", "name": "\u82cf\u5dde\u88d5\u8fbe\u5e38\u719f\u5206\u5e97", "lng": "120.953341", "lat": "31.751759", "province": "\u6c5f\u82cf", "city": "\u82cf\u5dde", "address": "\u5e38\u719f\u5e02\u7ecf\u6d4e\u6280\u672f\u5f00\u53d1\u533a\u6c7d\u6e21\u8def28\u53f73\u5e62\uff08\u91d1\u5f00\u987a\u7f8a\u6bdb\u886b\u5382\u5bf9\u9762", "phone_service": "0512-52061999", "phone_seal": "0512-52061998", "website": "yd_cs", "phone": ""}, "984": {"id": "984", "name": "\u5e38\u719f\u6d77\u90a6\u6885\u674e\u5206\u5e97", "lng": "120.863575", "lat": "31.717031", "province": "\u6c5f\u82cf", "city": "\u5e38\u719f", "address": "\u5e38\u719f\u5e02\u6885\u674e\u9547\u5c06\u519b\u8def18\u53f71\u5e62107\u3001109", "phone_service": "", "phone_seal": "0512--52889855", "website": "hb_ml", "phone": ""}, "221": {"id": "221", "name": "\u5357\u901a\u5927\u751f", "lng": "120.809849", "lat": "32.040335", "province": "\u6c5f\u82cf", "city": "\u5357\u901a", "address": "\u5357\u901a\u5e02\u57ce\u6e2f\u8def187\u53f7", "phone_service": "0513-85601999", "phone_seal": "0513-85601999", "website": "ntds", "phone": ""}, "222": {"id": "222", "name": "\u5357\u901a\u957f\u6c5f", "lng": "120.954046", "lat": "31.928751", "province": "\u6c5f\u82cf", "city": "\u5357\u901a", "address": "\u5357\u901a\u5e02\u7ecf\u6d4e\u6280\u672f\u5f00\u53d1\u533a\u661f\u6e56\u5927\u90531081\u53f7", "phone_service": "0513-85929988", "phone_seal": "0513-85929999", "website": "ntcj", "phone": ""}, "345": {"id": "345", "name": "\u6d77\u95e8\u5e38\u5609", "lng": "121.132341", "lat": "31.891722", "province": "\u6c5f\u82cf", "city": "\u5357\u901a", "address": "\u5357\u901a\u6d77\u95e8\u5e02\u4eba\u6c11\u897f\u8def1688\u53f7", "phone_service": "0513-82181199", "phone_seal": "0513-82181188", "website": "hmcj", "phone": ""}, "452": {"id": "452", "name": "\u5982\u768b\u76ca\u660c\u76db\u8fbe", "lng": "120.553452", "lat": "32.361802", "province": "\u6c5f\u82cf", "city": "\u5357\u901a", "address": "\u5982\u768b\u5e02\u60e0\u653f\u897f\u8def(\u56fd\u9645\u8f66\u57ce\uff0c\u65b0\u6c7d\u8f66\u7ad9\u5411\u897f800\u7c73)", "phone_service": "0513-87200999", "phone_seal": "0513-87228188", "website": "rgycsd", "phone": ""}, "680": {"id": "680", "name": "\u5357\u901a\u5148\u950b\u65b0\u57ce", "lng": "120.975909", "lat": "32.006113", "province": "\u6c5f\u82cf", "city": "\u5357\u901a", "address": "\u6c5f\u82cf\u7701\u5357\u901a\u5e02\u901a\u5dde\u533a\u9752\u5e74\u4e1c\u8def618\u53f7", "phone_service": "0513\u201486329698", "phone_seal": "0513\u201486329555", "website": "gtxfxc", "phone": ""}, "681": {"id": "681", "name": "\u542f\u4e1c\u5e02\u542f\u7cae\u91d1\u57ce", "lng": "121.686094", "lat": "31.836514", "province": "\u6c5f\u82cf", "city": "\u5357\u901a", "address": "\u542f\u4e1c\u5e02\u57ce\u5317\u5de5\u4e1a\u56ed\u5174\u9f99\u4e1c\u8def666\u53f7", "phone_service": "0513-6803 7999", "phone_seal": "0513-6803 0888", "website": "qdqljc", "phone": ""}, "682": {"id": "682", "name": "\u5982\u4e1c\u4f17\u817e", "lng": "121.173869", "lat": "32.297928", "province": "\u6c5f\u82cf", "city": "\u5357\u901a", "address": "\u5357\u901a\u5e02\u5982\u4e1c\u53bf\u6398\u6e2f\u9547\u82b3\u6cc9\u6751\u5341\u4e94\u7ec4", "phone_service": "0513-68121668", "phone_seal": "0513-68121666", "website": "rdzt", "phone": ""}, "772": {"id": "772", "name": "\u5982\u768b\u76ca\u660c\u76db\u8fbe\u6d77\u5b89\u5206\u5e97", "lng": "120.513568", "lat": "32.542621", "province": "\u6c5f\u82cf", "city": "\u5357\u901a", "address": "\u6d77\u5b89\u53bf\u7ecf\u6d4e\u6280\u672f\u5f00\u53d1\u533a\u8fce\u5bbe\u8def18\u53f7\uff08\u82cf\u6d77\u6c7d\u8f66\u57ce\u5185\uff09", "phone_service": "0513-68335222", "phone_seal": "0513-68335111", "website": "rgycsd_ha", "phone": ""}, "985": {"id": "985", "name": "\u5357\u901a\u5927\u751f\u901a\u5dde\u5206\u5e97", "lng": "121.085632", "lat": "32.083608", "province": "\u6c5f\u82cf", "city": "\u5357\u901a", "address": "\u5357\u901a\u5e02\u901a\u5dde\u533a\u91d1\u6c99\u9547\u5317\u4e8c\u73af\u8def\u5357\u4fa7\uff08\u901a\u5dde\u4e2d\u4e13\u5185\uff09", "phone_service": "", "phone_seal": "0513-62599188", "website": "ds_tz", "phone": ""},